stop_id,stop_code,stop_name,stop_lat,stop_lon,location_type,parent_station
3377704015495200,AEROA|MNLP_**_20AEA,Aéroport,45.7918,3.16119,0,1970329131942269
3377704015495197,ABPRA|MNLP_**_07ABA,Abbé Prévost,45.7929,3.08435,0,1970329131942138
3377704015495201,AEROR|MNLP_**_20AER,Aéroport,45.7918,3.1616,0,1970329131942269
3377704015495202,AGRIA|MNLP_**_09AGA|MNLP_**_35AGA|MNLP_**_36AGA,Agriculture,45.7797,3.12869,0,1970329131942171
3377704015495198,ABPRR|MNLP_**_07ABR,Abbé Prévost,45.793,3.0843,0,1970329131942138
3377704015495199,ACILR|MNLP_**_22ACR,Acilloux,45.7296,3.18219,0,1970329131942325
3377704015495205,ALVAA|MNLP_**_41VAA|MNLP_**_41VAR|MNLP_**_B_VAA|MNLP_**_C2VAA|MNLP_**_C_VAA|MNLP_**_VAREA,Alexandre Varenne,45.7767,3.07741,0,1970329131942044
3377704015495204,ALOUR|MNLP_**_90ALR|MNLP_**_C_ALR,Alouettes,45.7352,3.19159,0,1970329131942078
3377704015495211,ARAGR|MNLP_**_09ARR,Arago,45.7748,3.10399,0,1970329131942172
3377704015495203,ALOUA|MNLP_**_22ALR|MNLP_**_90ALA|MNLP_**_C_ALA,Alouettes,45.7352,3.19164,0,1970329131942078
3377704015495209,ANFRR|MNLP_**_10AFR|MNLP_**_35AFR|MNLP_**_36AFR,Anatole France,45.7789,3.11275,0,1970329131942222
3377704015495212,ARBOA|MNLP_**_10ARR|MNLP_**_24ARR,Arbos,45.8119,3.10314,0,1970329131941889
3377704015495206,ALVAR|MNLP_**_B_VAR|MNLP_**_C_VAR|MNLP_**_VARER,Alexandre Varenne,45.7767,3.07793,0,1970329131942044
3377704015495215,ARCHR|MNLP_**_22ARR|MNLP_**_23ARR,"L'Arche",45.742,3.15836,0,1970329131942318
3377704015495217,ARTIR|MNLP_**_03AER,Artière,45.7541,3.11649,0,1970329131941890
3377704015495210,ARAGA|MNLP_**_09ARA,Arago,45.7748,3.10353,0,1970329131942172
3377704015495220,AUBRA|MNLP_**_10ACA,Aubrac,45.7808,3.11741,0,1970329131942173
3377704015495214,ARCHA|MNLP_**_22ARA|MNLP_**_23ARA,"L'Arche",45.742,3.1583,0,1970329131942318
3377704015495218,AUBGA|MNLP_**_10ABA,Aubigné,45.7803,3.10827,0,1970329131942193
3377704015495224,AUBTR|MNLP_**_21ABR|MNLP_**_24ABR,Aubiat,45.8319,3.09674,0,1970329131941891
3377704015495225,AUDOA|MNLP_**_03AUA|MNLP_**_04AUA|MNLP_**_07AUA|MNLP_**_12AUA|MNLP_**_27AUA|MNLP_**_35AUA|MNLP_**_36AUA,Audollent,45.7789,3.09317,0,1970329131941893
3377704015495219,AUBGR|MNLP_**_10ABR|MNLP_**_35ABR|MNLP_**_36ABR,Aubigné,45.7782,3.10859,0,1970329131942193
3377704015495221,AUBRB|MNLP_**_09AUA|MNLP_**_21ACA,Aubrac,45.7806,3.11748,0,1970329131942173
3377704015495222,AUBRR|MNLP_**_09AUR|MNLP_**_10ACR|MNLP_**_21ACR,Aubrac,45.7814,3.11788,0,1970329131942173
3377704015495234,AVIAA|MNLP_**_10AVA|MNLP_**_20AVA|MNLP_**_22ATR,Aviation,45.7938,3.15861,0,1970329131942195
3377704015495223,AUBTA|MNLP_**_21ABA|MNLP_**_24ABA,Aubiat,45.832,3.09655,0,1970329131941891
3377704015495226,AUDOR|MNLP_**_03AUR|MNLP_**_04AUR|MNLP_**_07AUR|MNLP_**_27AUR|MNLP_**_35AUR|MNLP_**_36AUR,Audollent,45.7786,3.09381,0,1970329131941893
3377704015495227,AUPRA|MNLP_**_03AAA|MNLP_**_03RAA|MNLP_**_12ABR|MNLP_**_27RAA,AUBIÈRE Pl. des Ramacles,45.7496,3.11206,0,1970329131941892
3377704015495228,AUPRR|MNLP_**_03RAR|MNLP_**_12ABA|MNLP_**_27RAR,AUBIÈRE Pl. des Ramacles,45.75,3.11288,0,1970329131941892
3377704015495229,AUSER|MNLP_**_10AUA|MNLP_**_10AUR|MNLP_**_20AUA|MNLP_**_20AUR,AULNAT St Exupéry,45.7955,3.17224,0,1970329131942194
3377704015495231,AUZOR|MNLP_**_22AUR,Auzon,45.7253,3.19722,0,1970329131942308
3377704015495237,AVPOR|MNLP_**_90APR|MNLP_**_C_APR,Av. du Pont,45.7354,3.20732,0,1970329131942082
3377704015495238,AVTHA|MNLP_**_05AVA|MNLP_**_B_AVA,Av. Thermale,45.7716,3.05945,0,1970329131942045
3377704015495230,AUZOA|MNLP_**_22AUA,Auzon,45.7253,3.19702,0,1970329131942308
3377704015495270,BELVA|MNLP_**_03BVA|MNLP_**_12BVR|MNLP_**_27BLA,Bellevue,45.7338,3.10668,0,1970329131941896
3377704015495235,AVIAR|MNLP_**_10AVR|MNLP_**_20AVR|MNLP_**_22ATA,Aviation,45.7938,3.15875,0,1970329131942195
3377704015495239,AVTHR|MNLP_**_05AVR|MNLP_**_B_AVR,Av. Thermale,45.7714,3.05938,0,1970329131942045
3377704015495240,BACHA|MNLP_**_04BCA|MNLP_**_27BCR,Bas Champflour,45.787,3.09238,0,1970329131941991
3377704015495241,BACHR|MNLP_**_04BCR,Bas Champflour,45.7871,3.09212,0,1970329131941991
3377704015495244,BAISA|MNLP_**_03BIA|MNLP_**_08BIR|MNLP_**_13BIR|MNLP_**_A1BIA,"Barrière d'Issoire",45.7728,3.09289,0,1970329131941895
3377704015495245,BAISR|MNLP_**_03BIR|MNLP_**_A1BIR,"Barrière d'Issoire",45.7736,3.09119,0,1970329131941895
3377704015495246,BALLA|MNLP_**_03BAA|MNLP_**_04BAA|MNLP_**_08BAA|MNLP_**_12BAA|MNLP_**_13BAA|MNLP_**_27BAA|MNLP_**_50BAA|MNLP_**_A1BAA,Ballainvilliers,45.7754,3.08663,0,1970329131941894
3377704015495247,BALLB|MNLP_**_09BAA|MNLP_**_10BAA|MNLP_**_40BAA|MNLP_**_B_BAA|MNLP_**_C_BAA,Ballainvilliers,45.7758,3.08668,0,1970329131941894
3377704015495248,BALLR|MNLP_**_03BAR|MNLP_**_04BAR|MNLP_**_08BAR|MNLP_**_12BAR|MNLP_**_13BAR|MNLP_**_27BAR|MNLP_**_A1BAR,Ballainvilliers,45.7754,3.08691,0,1970329131941894
3377704015495249,BALLS|MNLP_**_09BAR|MNLP_**_10BAR|MNLP_**_13BLR|MNLP_**_40BAR|MNLP_**_B_BAR|MNLP_**_C_BAR,Ballainvilliers,45.7757,3.08628,0,1970329131941894
3377704015495250,BANVA|MNLP_**_10BVA,Banville,45.7784,3.10441,0,1970329131942196
3377704015495251,BARAA|MNLP_**_04BRA|MNLP_**_10BRA,Barante,45.7861,3.06946,0,1970329131941990
3377704015495252,BARAR|MNLP_**_04BRR|MNLP_**_10BRR,Barante,45.786,3.0696,0,1970329131941990
3377704015495253,BARGA|MNLP_**_26BAA,Bargoin,45.764,3.06011,0,1970329131942047
3377704015495254,BARGR|MNLP_**_05BRA|MNLP_**_26BAR,Bargoin,45.7633,3.06059,0,1970329131942047
3377704015495255,BARRA|MNLP_**_05BUA,Barrieu,45.7646,3.05433,0,1970329131942049
3377704015495256,BARRR|MNLP_**_05BUR,Barrieu,45.7646,3.05456,0,1970329131942049
3377704015495257,BARSA|MNLP_**_05BAA,Barreiras,45.7632,3.04925,0,1970329131942048
3377704015495259,BATIA|MNLP_**_20BAA,Batignolles,45.8374,3.14725,0,1970329131942270
3377704015495258,BARSR|MNLP_**_05BAR,Barreiras,45.7632,3.04925,0,1970329131942048
3377704015495260,BATIR|MNLP_**_20BAR,Batignolles,45.8374,3.14783,0,1970329131942270
3377704015495261,BEAPA|MNLP_**_04BEA|MNLP_**_10BPR|MNLP_**_28BPR,Beaupeyras,45.7947,3.08238,0,1970329131941993
3377704015495262,BEAPR|MNLP_**_04BER|MNLP_**_10BPA|MNLP_**_28BPA,Beaupeyras,45.7947,3.08277,0,1970329131941993
3377704015495263,BEASA|MNLP_**_34BEA,Beauséjour,45.7242,3.19192,0,1970329131942376
3377704015495336,CECHA|MNLP_**_21CEA,CEBAZAT CHU L.Michel,45.8397,3.09196,0,1970329131941902
3377704015495264,BEASR|MNLP_**_34BER,Beauséjour,45.724,3.19194,0,1970329131942376
3377704015495265,BEAUA|MNLP_**_13BEA,Beausite,45.768,3.06237,0,1970329131942240
3377704015495266,BEAUR|MNLP_**_13BER,Beausite,45.7683,3.06156,0,1970329131942240
3377704015495267,BEHOR|MNLP_**_34BHR,Bel Horizon,45.7134,3.18805,0,1970329131942383
3377704015495268,BELLA|MNLP_**_21BEA|MNLP_**_24BEA,Bellime,45.8357,3.09508,0,1970329131941897
3377704015495280,BERIR|MNLP_**_22BRR,Beau Rivage,45.7338,3.2114,0,1970329131942309
3377704015495281,BERLR|MNLP_**_13BZR,Berlioz,45.7694,3.0764,0,1970329131942266
3377704015495269,BELLR|MNLP_**_21BER|MNLP_**_24BER,Bellime,45.8359,3.09509,0,1970329131941897
3377704015495271,BELVR|MNLP_**_03BVR|MNLP_**_12BVA|MNLP_**_27BLR,Bellevue,45.734,3.10688,0,1970329131941896
3377704015495272,BEMAA|MNLP_**_08MAA|MNLP_**_08MAR,MATUSSAT Châtaigneraie,45.7489,3.06928,0,1970329131942159
3377704015495273,BEPAA|MNLP_**_08BEA|MNLP_**_08BER|MNLP_**_12BEA|MNLP_**_27BEA,"BEAUMONT Pl. d'Armes",45.7517,3.08837,0,1970329131942153
3377704015495274,BEPAR|MNLP_**_08BPR|MNLP_**_12BER|MNLP_**_27BER,"BEAUMONT Pl. d'Armes",45.7511,3.08838,0,1970329131942153
3377704015495275,BEPBA|MNLP_**_04BPA,BEAUMONT Pont de Boisséjour,45.7474,3.0721,0,1970329131941992
3377704015495276,BEPBR|MNLP_**_04BPR,BEAUMONT Pont de Boisséjour,45.7474,3.07214,0,1970329131941992
3377704015495277,BERCA|MNLP_**_05BXA,Berceaux,45.7644,3.05187,0,1970329131942050
3377704015495279,BERIA|MNLP_**_22BRA,Beau Rivage,45.7336,3.21145,0,1970329131942309
3377704015495278,BERCR|MNLP_**_05BXR,Berceaux,45.7646,3.05456,0,1970329131942050
3377704015495296,BOMOA|MNLP_**_04BMA|MNLP_**_26BMR,Boisséjour Monument,45.7436,3.05893,0,1970329131941997
3377704015495282,BERTA|MNLP_**_05BER|MNLP_**_09BEA|MNLP_**_C_BEA,Berthelot,45.7809,3.07104,0,1970329131942051
3377704015495283,BERTR|MNLP_**_05BEA|MNLP_**_09BER|MNLP_**_C_BER,Berthelot,45.7805,3.07114,0,1970329131942051
3377704015495284,BEZAA|MNLP_**_12BZA|MNLP_**_27BNA,Bezance,45.7315,3.09976,0,1970329131942227
3377704015495285,BEZAR|MNLP_**_12BZR|MNLP_**_27BNR,Bezance,45.7315,3.09974,0,1970329131942227
3377704015495286,BEZOA|MNLP_**_03BZA|MNLP_**_12BUR|MNLP_**_27BZA,La Bezou,45.7436,3.10743,0,1970329131941938
3377704015495287,BEZOR|MNLP_**_03BZR|MNLP_**_12BUA|MNLP_**_27BZR,La Bezou,45.744,3.10793,0,1970329131941938
3377704015495288,BIASA|MNLP_**_03ASA,Bien Assis,45.7891,3.09567,0,1970329131941898
3377704015495289,BIASB|MNLP_**_04ASA|MNLP_**_27BIR,Bien Assis,45.788,3.0947,0,1970329131941898
3377704015495290,BIASR|MNLP_**_03ASR,Bien Assis,45.7893,3.09582,0,1970329131941898
3377704015495291,BIASS|MNLP_**_04ASR,Bien Assis,45.7882,3.09499,0,1970329131941898
3377704015495293,BLLMA|MNLP_**_31BLA|MNLP_**_31BLR,BLANZAT Les Mauvaises,45.8398,3.0745,0,1970329131942351
3377704015495294,BMESA|MNLP_**_05BSR|MNLP_**_10BEA,Beaumes,45.7816,3.06313,0,1970329131942083
3377704015495295,BMESR|MNLP_**_05BSA|MNLP_**_10BER,Beaumes,45.7813,3.06316,0,1970329131942083
3377704015495298,BOMOR|MNLP_**_04BMR|MNLP_**_05BMA|MNLP_**_26BMA,Boisséjour Monument,45.7439,3.0587,0,1970329131941997
3377704015495301,BOPLR|MNLP_**_04BSR|MNLP_**_26BSR,Boisséjour Place,45.7452,3.06231,0,1970329131941994
3377704015495302,BOURA|MNLP_**_20BOA|MNLP_**_22BOA,Bourly,45.8291,3.14567,0,1970329131942271
3377704015495300,BOPLA|MNLP_**_04BSA|MNLP_**_26BSA,Boisséjour Place,45.7452,3.06226,0,1970329131941994
3377704015495309,BREZR|MNLP_**_09BRR|MNLP_**_09BTR|MNLP_**_09BZR|MNLP_**_35BRR|MNLP_**_36BRR,Brezet,45.7799,3.13258,0,1970329131942174
3377704015495310,BRUGA|MNLP_**_20BRA,Brugeron,45.8087,3.1294,0,1970329131942272
3377704015495306,BOUYA|MNLP_**_04BYA|MNLP_**_04BYR|MNLP_**_32BOA,Bouys,45.7941,3.06219,0,1970329131941995
3377704015495303,BOURR|MNLP_**_20BOR|MNLP_**_22BOR,Bourly,45.8285,3.1465,0,1970329131942271
3377704015495325,CARNA|MNLP_**_08CAA|MNLP_**_09CAA|MNLP_**_10CAA|MNLP_**_13CAA|MNLP_**_B_CAA|MNLP_**_C_CAA,Carnot,45.7763,3.09407,0,1970329131942085
3377704015495307,BOUYR|MNLP_**_32BOR,Bouys,45.7941,3.06219,0,1970329131941995
3377704015495308,BREZA|MNLP_**_09BZA|MNLP_**_35BRA|MNLP_**_36BRA,Brézet,45.7798,3.13342,0,1970329131942174
3377704015495311,BRUGR|MNLP_**_20BRR,Brugeron,45.8085,3.1292,0,1970329131942272
3377704015495312,BRUMA|MNLP_**_26BRA,Brunmurol,45.7329,3.06441,0,1970329131942326
3377704015495313,BRUMR|MNLP_**_26BRR,Brunmurol,45.733,3.0643,0,1970329131942326
3377704015495314,BRUNA|MNLP_**_26LBA,La Brune,45.751,3.0621,0,1970329131942065
3377704015495315,BRUNR|MNLP_**_05BNA|MNLP_**_26LBR,La Brune,45.7508,3.06204,0,1970329131942065
3377704015495316,BUGHA|MNLP_**_09BUA|MNLP_**_28BUA,Bughes,45.788,3.08392,0,1970329131942175
3377704015495317,BUGHR|MNLP_**_09BUR|MNLP_**_28BUR,Bughes,45.7879,3.08401,0,1970329131942175
3377704015495319,CAMPA|MNLP_**_A_CUA,Campus,45.7589,3.11386,0,1970329131942435
3377704015495323,CARMR|MNLP_**_A_CAR,Les Carmes,45.7824,3.09421,0,1970329131942336
3377704015495320,CAMPR|MNLP_**_A_CUR,Campus,45.7589,3.11377,0,1970329131942435
3377704015495321,CARMA|MNLP_**_A2CAA|MNLP_**_A_CAA,Les Carmes,45.7825,3.09421,0,1970329131942336
3377704015495334,CAVEA|MNLP_**_03CAA|MNLP_**_12CAR|MNLP_**_27CVA,Les Caves,45.7325,3.10521,0,1970329131941947
3377704015495332,CATAR|MNLP_**_04CAR|MNLP_**_28CAR,Cataroux,45.7895,3.09818,0,1970329131941901
3377704015495326,CARNR|MNLP_**_08CAR|MNLP_**_09CAR|MNLP_**_10CAR|MNLP_**_13CAR|MNLP_**_B_CAR|MNLP_**_C_CAR,Carnot,45.7762,3.09521,0,1970329131942085
3377704015495327,CARTR|MNLP_**_07CAR|MNLP_**_09CER|MNLP_**_C_CER,Cartoucherie,45.7761,3.09875,0,1970329131942134
3377704015495328,CASAA|MNLP_**_03CSA,Casati,45.7523,3.10775,0,1970329131941900
3377704015495329,CASAR|MNLP_**_03CSR,Casati,45.7525,3.10765,0,1970329131941900
3377704015495330,CATAA|MNLP_**_04CAA|MNLP_**_28CAA,Cataroux,45.7892,3.09838,0,1970329131941901
3377704015495341,CEPRR|MNLP_**_04CPR,CEYRAT Pradeaux,45.7211,3.0681,0,1970329131941998
3377704015495335,CAVER|MNLP_**_03CAR|MNLP_**_12CAA|MNLP_**_27CVR,Les Caves,45.7328,3.10541,0,1970329131941947
3377704015495505,CRNEA|MNLP_**_A_CNA,Croix de Neyrat,45.8144,3.10682,0,1970329131941918
3377704015495337,CEFOA|MNLP_**_26CFA|MNLP_**_26CFR,CEYRAT Fontimbert,45.734,3.07566,0,1970329131942327
3377704015495364,CHAPR|MNLP_**_10CPR|MNLP_**_20CPR,Les Chapelles,45.799,3.16854,0,1970329131942213
3377704015495365,CHARA|MNLP_**_21LCA|MNLP_**_22CHR,La Charme,45.7978,3.11928,0,1970329131942282
3377704015495338,CEPEA|MNLP_**_A2PEA|MNLP_**_A_PEA,Cézeaux Pellez,45.7611,3.10892,0,1970329131942436
3377704015495339,CEPER|MNLP_**_A_PER,Cézeaux Pellez,45.7612,3.10892,0,1970329131942436
3377704015495340,CEPRA|MNLP_**_04CPA,CEYRAT Pradeaux,45.7204,3.06819,0,1970329131941998
3377704015495343,CERER|MNLP_**_21CYR|MNLP_**_24CYR,Ceyre,45.831,3.085,0,1970329131941903
3377704015495344,CEROA|MNLP_**_04CRA,CEYRAT Robinson,45.7258,3.06348,0,1970329131941999
3377704015495345,CEROR|MNLP_**_04CRR,CEYRAT Robinson,45.7257,3.06357,0,1970329131941999
3377704015495346,CEVEA|MNLP_**_22CVA|MNLP_**_34CVA|MNLP_**_C_NEA,Cévennes,45.7272,3.18944,0,1970329131942086
3377704015495347,CEVER|MNLP_**_22CVR|MNLP_**_34CVR|MNLP_**_C_NER,Cévennes,45.7273,3.1895,0,1970329131942086
3377704015495348,CEYRA|MNLP_**_04CYA|MNLP_**_26CER,CEYRAT Mairie,45.7339,3.06387,0,1970329131941996
3377704015495349,CEYRR|MNLP_**_04CYR|MNLP_**_26CEA,CEYRAT Mairie,45.7337,3.0641,0,1970329131941996
3377704015495350,CHABA|MNLP_**_20CHA,Chabesses,45.8179,3.14319,0,1970329131942273
3377704015495351,CHABR|MNLP_**_20CHR,Chabesses,45.8177,3.14298,0,1970329131942273
3377704015495352,CHAGA|MNLP_**_04AGA,"Chapelle de l'Agneau",45.7503,3.07933,0,1970329131942003
3377704015495353,CHAGR|MNLP_**_04AGR,"Chapelle de l'Agneau",45.7498,3.0792,0,1970329131942003
3377704015495354,CHALA|MNLP_**_04CXA|MNLP_**_10CLR|MNLP_**_28CXR,Clos des Vignes,45.7917,3.0913,0,1970329131942000
3377704015495355,CHALR|MNLP_**_04CXR|MNLP_**_10CLA|MNLP_**_28CXA,Clos des Vignes,45.7919,3.0915,0,1970329131942000
3377704015495356,CHAMA|MNLP_**_A_CHA,Champratel,45.8149,3.11223,0,1970329131941906
3377704015495361,CHANA|MNLP_**_09CHA|MNLP_**_10CEA|MNLP_**_10CER|MNLP_**_28CEA|MNLP_**_28CER,Chanelles,45.7895,3.08033,0,1970329131942177
3377704015495372,CHAVR|MNLP_**_31CVR,Chavaroche,45.8474,3.08643,0,1970329131942354
3377704015495373,CHAZA|MNLP_**_21CZA,Chazots,45.7533,3.1365,0,1970329131942088
3377704015495362,CHANR|MNLP_**_09CHR,Chanelles,45.7894,3.08029,0,1970329131942177
3377704015495363,CHAPA|MNLP_**_10CPA|MNLP_**_20CPA,Les Chapelles,45.7993,3.16741,0,1970329131942213
3377704015495366,CHARR|MNLP_**_20LCA|MNLP_**_21LCR|MNLP_**_22CHA,La Charme,45.7983,3.12001,0,1970329131942282
3377704015495367,CHATA|MNLP_**_08CHA,Châtaigneraie,45.7513,3.07432,0,1970329131942154
3377704015495368,CHATR|MNLP_**_08CHR,Châtaigneraie,45.7513,3.07431,0,1970329131942154
3377704015495369,CHAUA|MNLP_**_A2LCA|MNLP_**_A_LCA,La Chaux,45.7608,3.10414,0,1970329131942440
3377704015495390,CHDGR|MNLP_**_35DGR|MNLP_**_36DGR,Charles de Gaulle,45.7693,3.19821,0,1970329131942390
3377704015495391,CHDLA|MNLP_**_31CAA,"Champ de l'Allée",45.8513,3.08265,0,1970329131942352
3377704015495370,CHAUR|MNLP_**_A_LCR,La Chaux,45.7608,3.10414,0,1970329131942440
3377704015495371,CHAVA|MNLP_**_31CVA,Chavaroche,45.8471,3.08703,0,1970329131942354
3377704015495374,CHAZR|MNLP_**_21CZR,Chazots,45.7534,3.13689,0,1970329131942088
3377704015495375,CHBDA|MNLP_**_04CHA|MNLP_**_08LCR,Les Chabades,45.7528,3.08379,0,1970329131942012
3377704015495376,CHBDR|MNLP_**_04CHR|MNLP_**_08LCA,Les Chabades,45.7527,3.08352,0,1970329131942012
3377704015495377,CHBEA|MNLP_**_31CHA,Les Chambérys,45.8477,3.09199,0,1970329131942359
3377704015495378,CHBER|MNLP_**_31CHR,Les Chambérys,45.8483,3.09272,0,1970329131942359
3377704015495379,CHBLA|MNLP_**_22CBA|MNLP_**_90CHA|MNLP_**_C_CBA,Chaux Blanche,45.7392,3.17226,0,1970329131942087
3377704015495380,CHBLR|MNLP_**_22CBR|MNLP_**_90CHR|MNLP_**_C_CBR,Chaux Blanche,45.7388,3.1725,0,1970329131942087
3377704015495381,CHCOA|MNLP_**_32CCA|MNLP_**_C_CCA,Chambre de Commerce,45.7825,3.07207,0,1970329131942054
3377704015495382,CHCOB|MNLP_**_09CCA,Chambre de Commerce,45.7824,3.07403,0,1970329131942054
3377704015495383,CHCOR|MNLP_**_05CCA|MNLP_**_09CCR|MNLP_**_C_CCR,Chambre de Commerce,45.7818,3.07141,0,1970329131942054
3377704015495386,CHCRR|MNLP_**_03CPR|MNLP_**_21CCR|MNLP_**_24CPR,Champcros,45.8215,3.10701,0,1970329131941904
3377704015495387,CHCTA|MNLP_**_32CHA,Champcourt,45.8159,3.05726,0,1970329131942366
3377704015495384,CHCOS|MNLP_**_05CCR|MNLP_**_32CCR,Chambre de Commerce,45.7819,3.07359,0,1970329131942054
3377704015495385,CHCRA|MNLP_**_03CPA|MNLP_**_21CCA|MNLP_**_24CPA,Champcros,45.821,3.10704,0,1970329131941904
3377704015495388,CHCTR|MNLP_**_32CHR,Champcourt,45.8157,3.0573,0,1970329131942366
3377704015495389,CHDGA|MNLP_**_35DGA|MNLP_**_36DGA,Charles de Gaulle,45.7694,3.19824,0,1970329131942390
3377704015495400,CHGMB|MNLP_**_03GMR|MNLP_**_08GMA|MNLP_**_50GMA|MNLP_**_A1GMA,CHU G. Montpied,45.7611,3.0902,0,1970329131941911
3377704015495401,CHGMR|MNLP_**_ABGMR|MNLP_**_A_GMR,CHU G. Montpied,45.7614,3.08956,0,1970329131941911
3377704015495392,CHDLR|MNLP_**_31CAR,"Champ de l'Allée",45.8512,3.08285,0,1970329131942352
3377704015495393,CHESA|MNLP_**_B_CHA,CHU Estaing,45.7847,3.10863,0,1970329131942445
3377704015495394,CHESR|MNLP_**_B_CHR,CHU Estaing,45.7849,3.10848,0,1970329131942445
3377704015495395,CHEYA|MNLP_**_32LCA,La Cheyre,45.8038,3.05608,0,1970329131942369
3377704015495397,CHFLA|MNLP_**_03CFA|MNLP_**_10GCA|MNLP_**_28CPA,Champfleuri,45.7932,3.09933,0,1970329131941905
3377704015495396,CHEYR|MNLP_**_32LCR,La Cheyre,45.8037,3.05599,0,1970329131942369
3377704015495404,CHLYA|MNLP_**_13CLA|MNLP_**_13LYA,Chamalières Lycée,45.7768,3.05099,0,1970329131942052
3377704015495398,CHFLR|MNLP_**_03CFR|MNLP_**_10GCR|MNLP_**_28CPR,Champfleuri,45.7932,3.09933,0,1970329131941905
3377704015495399,CHGMA|MNLP_**_A_GMA,CHU G. Montpied,45.7613,3.08956,0,1970329131941911
3377704015495417,CHPPA|MNLP_**_21CPA,Chappe,45.7864,3.11951,0,1970329131942298
3377704015495402,CHGMS|MNLP_**_03GMA|MNLP_**_08GMR|MNLP_**_A1GMR,CHU G. Montpied,45.7611,3.08942,0,1970329131941911
3377704015495403,CHLDA|MNLP_**_31CDA,CHÂTEAUGAY Le Châlard,45.854,3.08907,0,1970329131942353
3377704015495405,CHLYR|MNLP_**_05LYA|MNLP_**_05LYR|MNLP_**_13LYR,Chamalières Lycée,45.7768,3.05098,0,1970329131942052
3377704015495406,CHMAA|MNLP_**_B_CMA,Chamalières Mairie,45.7759,3.06821,0,1970329131942053
3377704015495407,CHMAB|MNLP_**_05MAA|MNLP_**_13CHA,Chamalières Mairie,45.7755,3.06811,0,1970329131942053
3377704015495408,CHMAR|MNLP_**_13CMR|MNLP_**_B_CMR,Chamalières Mairie,45.7757,3.06768,0,1970329131942053
3377704015495412,CHOMA|MNLP_**_27CHA,Chomontel,45.7308,3.09657,0,1970329131942331
3377704015495409,CHMAS|MNLP_**_05MAR|MNLP_**_13CHR,Chamalières Mairie,45.7754,3.06823,0,1970329131942053
3377704015495413,CHOMR|MNLP_**_27CHR,Chomontel,45.731,3.09678,0,1970329131942331
3377704015495414,CHPLA|MNLP_**_03PTA,Chaptal,45.7593,3.10127,0,1970329131941909
3377704015495415,CHPLB|MNLP_**_D3PTA,Chaptal,45.7589,3.10112,0,1970329131941909
3377704015495416,CHPLR|MNLP_**_03PTR,Chaptal,45.7584,3.10201,0,1970329131941909
3377704015495418,CHPPR|MNLP_**_21CPR,Chappe,45.7864,3.11978,0,1970329131942298
3377704015495419,CHPTA|MNLP_**_05CHR|MNLP_**_10CDA,Champradet,45.7877,3.05951,0,1970329131942001
3377704015495420,CHPTR|MNLP_**_04CDA|MNLP_**_04CDR|MNLP_**_05CHA|MNLP_**_10CDR,Champradet,45.7877,3.05953,0,1970329131942001
3377704015495429,CHTBA|MNLP_**_09CDA,Chateaubriand,45.7868,3.08124,0,1970329131942178
3377704015495421,CHPVA|MNLP_**_03VOA,Champvoisin,45.7523,3.11022,0,1970329131941907
3377704015495422,CHPVR|MNLP_**_03VOR,Champvoisin,45.7523,3.11015,0,1970329131941907
3377704015495423,CHRCA|MNLP_**_04CTA|MNLP_**_10CTR|MNLP_**_28CTR,Charcot Fontaine du Large,45.7939,3.09118,0,1970329131942004
3377704015495424,CHRCR|MNLP_**_04CTR|MNLP_**_10CTA|MNLP_**_28CTA,Charcot Fontaine du Large,45.7939,3.0911,0,1970329131942004
3377704015495427,CHSSA|MNLP_**_08CDA,Chaussades,45.7509,3.0765,0,1970329131942155
3377704015495437,CICEA|MNLP_**_13CCA,Cité Centre Enfance,45.7683,3.07185,0,1970329131942242
3377704015495428,CHSSR|MNLP_**_08CDR,Chaussades,45.7509,3.07672,0,1970329131942155
3377704015495430,CHTBR|MNLP_**_09CDR,Chateaubriand,45.7863,3.08048,0,1970329131942178
3377704015495431,CHTEA|MNLP_**_03HNA|MNLP_**_10CNA|MNLP_**_28CNA,Chanteranne,45.792,3.09651,0,1970329131941908
3377704015495432,CHTER|MNLP_**_03HNR|MNLP_**_10CNR|MNLP_**_28CNR,Chanteranne,45.7914,3.09594,0,1970329131941908
3377704015495433,CHTMA|MNLP_**_04CMA|MNLP_**_26CHR,Chantemerle,45.7369,3.06155,0,1970329131942002
3377704015495439,CICER|MNLP_**_13CCR,Cité Centre Enfance,45.7683,3.07141,0,1970329131942242
3377704015495434,CHTMR|MNLP_**_04CMR|MNLP_**_26CHA,Chantemerle,45.7375,3.0609,0,1970329131942002
3377704015495442,CLADR|MNLP_**_21CLR|MNLP_**_24CDR,Cladenas,45.8303,3.1043,0,1970329131941912
3377704015495444,CLFOA|MNLP_**_03CLA|MNLP_**_04CLA,Clos Four,45.7868,3.09828,0,1970329131941913
3377704015495443,CLADS|MNLP_**_20CDA,Cladenas,45.8306,3.10542,0,1970329131941912
3377704015495440,CLADA|MNLP_**_20CLA|MNLP_**_20CLR|MNLP_**_21CLA|MNLP_**_24CDA,Cladenas,45.8301,3.10463,0,1970329131941912
3377704015495457,COBAR|MNLP_**_08BDA|MNLP_**_08BDR,Collège Baudelaire,45.759,3.09508,0,1970329131942156
3377704015495445,CLFOR|MNLP_**_03CLR,Clos Four,45.7875,3.09779,0,1970329131941913
3377704015495446,CLFOS|MNLP_**_04CLR,Clos Four,45.7875,3.09848,0,1970329131941913
3377704015495447,CLHUA|MNLP_**_07CLA,Clovis Hugues,45.7727,3.11056,0,1970329131942139
3377704015495448,CLHUR|MNLP_**_07CLR,Clovis Hugues,45.7728,3.11056,0,1970329131942139
3377704015495449,CLMSA|MNLP_**_27CLA,Clémensat,45.7223,3.07991,0,1970329131942332
3377704015495450,CLMSR|MNLP_**_27CLR,Clémensat,45.7224,3.08028,0,1970329131942332
3377704015495453,COACA|MNLP_**_A_ACA,Collège A. Camus,45.8074,3.10662,0,1970329131942437
3377704015495454,COACR|MNLP_**_A_ACR,Collège A. Camus,45.8074,3.10668,0,1970329131942437
3377704015495456,COAFA|MNLP_**_20CGA|MNLP_**_20CGR,Collège Anatole France,45.8281,3.15432,0,1970329131942274
3377704015495463,COHOA|MNLP_**_22HOA|MNLP_**_34HOA,COURNON Hortensias,45.7277,3.1896,0,1970329131942314
3377704015495458,COBLA|MNLP_**_03CBA|MNLP_**_08CBR|MNLP_**_A1CBA,Côte Blatin,45.7707,3.09456,0,1970329131941914
3377704015495460,COFLA|MNLP_**_04CFA|MNLP_**_10CFR|MNLP_**_28CFR,Côtes Fleuries,45.7945,3.08457,0,1970329131942005
3377704015495459,COBLR|MNLP_**_03CBR|MNLP_**_08CBA|MNLP_**_A1CBR,Côte Blatin,45.7711,3.09446,0,1970329131941914
3377704015495461,COFLR|MNLP_**_04CFR|MNLP_**_10CFA|MNLP_**_28CFA,Côtes Fleuries,45.7945,3.08438,0,1970329131942005
3377704015495462,COGPR|MNLP_**_10PHR,Collège G. Philippe,45.7963,3.11566,0,1970329131942198
3377704015495468,COLDB|MNLP_**_34COA|MNLP_**_34COR|MNLP_**_90CLA|MNLP_**_90CLR|MNLP_**_C_CLA,Lycée Descartes,45.7431,3.21015,0,1970329131942090
3377704015495469,COLOA|MNLP_**_13COA,Colombier,45.7805,3.04824,0,1970329131942244
3377704015495464,COHOR|MNLP_**_22HOR|MNLP_**_34HOR,COURNON Hortensias,45.7275,3.18949,0,1970329131942314
3377704015495465,COJCA|MNLP_**_13JOA|MNLP_**_13JOR|MNLP_**_27CEA|MNLP_**_27CER,Collège J. Curie,45.752,3.11939,0,1970329131942243
3377704015495467,COLDA|MNLP_**_C_CLR,Lycée Descartes,45.743,3.21024,0,1970329131942090
3377704015495470,COLOR|MNLP_**_13COR,Colombier,45.7804,3.048,0,1970329131942244
3377704015495489,CORNA|MNLP_**_22CNA|MNLP_**_34CNA,Cornonet,45.7389,3.19879,0,1970329131942313
3377704015495471,COMBA|MNLP_**_13CBA,Combes,45.7666,3.0669,0,1970329131942245
3377704015495472,COMBR|MNLP_**_13CBR,Combes,45.7666,3.06699,0,1970329131942245
3377704015495474,COMMA|MNLP_**_31COA,La Commandante,45.8492,3.08935,0,1970329131942357
3377704015495475,COMMR|MNLP_**_31COR,La Commandante,45.8494,3.08936,0,1970329131942357
3377704015495476,COMOA|MNLP_**_08CMA,Collège Molière,45.751,3.09651,0,1970329131942157
3377704015495477,COMOR|MNLP_**_08CMR,Collège Molière,45.7509,3.09638,0,1970329131942157
3377704015495478,CONDA|MNLP_**_22CDA|MNLP_**_90CDA,Condorcet,45.7397,3.19153,0,1970329131942089
3377704015495479,CONDR|MNLP_**_22CDR|MNLP_**_90CDR,Condorcet,45.7398,3.19206,0,1970329131942089
3377704015495480,CONMA|MNLP_**_09COA,Condamine,45.7771,3.11318,0,1970329131942179
3377704015495481,CONMR|MNLP_**_09COR,Condamine,45.777,3.1127,0,1970329131942179
3377704015495482,COPAA|MNLP_**_22CPA|MNLP_**_C_CTR,COURNON Pasteur,45.7264,3.20069,0,1970329131942135
3377704015495483,COPAR|MNLP_**_22CPR,COURNON Pasteur,45.7262,3.20046,0,1970329131942135
3377704015495485,CORIA|MNLP_**_22CRA,Collège de La Ribeyre,45.7287,3.2038,0,1970329131942312
3377704015495486,CORIR|MNLP_**_22CRR,Collège de La Ribeyre,45.7286,3.20352,0,1970329131942312
3377704015495496,COUTA|MNLP_**_03COA|MNLP_**_12COR|MNLP_**_27CNA,Couthon,45.7357,3.10194,0,1970329131941916
3377704015495490,CORNR|MNLP_**_22CNR,Cornonet,45.7386,3.19974,0,1970329131942313
3377704015495491,COTER|MNLP_**_07LCA|MNLP_**_07LCR,Les Côtes,45.7997,3.0845,0,1970329131942142
3377704015495493,COUMA|MNLP_**_20CMA|MNLP_**_24COA,Coumes,45.8314,3.09164,0,1970329131941915
3377704015495498,CRBAA|MNLP_**_35CBA|MNLP_**_36CBA,Croix Basse,45.7747,3.19372,0,1970329131942391
3377704015495501,CRFRA|MNLP_**_26CRA,Croix de Frun,45.7585,3.06336,0,1970329131942055
3377704015495497,COUTR|MNLP_**_03COR|MNLP_**_12COA|MNLP_**_27CNR,Couthon,45.7361,3.10208,0,1970329131941916
3377704015495499,CRBLA|MNLP_**_36CXA,Croix Blanche,45.7993,3.2444,0,1970329131942401
3377704015495518,CTROA|MNLP_**_09CRA|MNLP_**_10CRA,Centre Routier,45.7818,3.11989,0,1970329131942176
3377704015495500,CRBLR|MNLP_**_36CXR,Croix Blanche,45.7992,3.24446,0,1970329131942401
3377704015495502,CRFRR|MNLP_**_05CRA|MNLP_**_26CRR,Croix de Frun,45.7585,3.06316,0,1970329131942055
3377704015495503,CRLEA|MNLP_**_07CXA,Croix Léonardoux,45.7734,3.12286,0,1970329131942140
3377704015495509,CRNVA|MNLP_**_12CRA|MNLP_**_27CRA,Croix Neuve,45.7544,3.08768,0,1970329131942228
3377704015495831,MABES|MNLP_**_08BMR,Mairie de Beaumont,45.7537,3.08638,0,1970329131942015
3377704015495841,MAILA|MNLP_**_31MLA,Le Maillot,45.8492,3.10173,0,1970329131942358
3377704015495504,CRLER|MNLP_**_07CXR,Croix Léonardoux,45.7735,3.12318,0,1970329131942140
3377704015495510,CRNVR|MNLP_**_12CRR|MNLP_**_27CRR,Croix Neuve,45.7544,3.0877,0,1970329131942228
3377704015495511,CROUA|MNLP_**_D9CRA,Crouël,45.7707,3.1288,0,1970329131942448
3377704015495512,CROUR|MNLP_**_D9CRR,Crouël,45.7705,3.12894,0,1970329131942448
3377704015495513,CRVIA|MNLP_**_C_CVA,Croix des Vignes,45.7421,3.18143,0,1970329131942091
3377704015495514,CRVIR|MNLP_**_22VIR|MNLP_**_C_CVR,Croix des Vignes,45.7418,3.18199,0,1970329131942091
3377704015495516,CTILA|MNLP_**_03CIA|MNLP_**_21CIA|MNLP_**_24CIA,Coutils,45.8247,3.10525,0,1970329131941917
3377704015495523,CUGNR|MNLP_**_10CGR,Cugnot,45.7813,3.12279,0,1970329131942199
3377704015495524,DAGUA|MNLP_**_03DGR|MNLP_**_08DAA,Daguerre,45.7593,3.09624,0,1970329131941919
3377704015495517,CTILR|MNLP_**_03CIR|MNLP_**_21CIR|MNLP_**_24CIR,Coutils,45.825,3.10515,0,1970329131941917
3377704015495519,CTROB|MNLP_**_21CRA,Centre Routier,45.7824,3.11803,0,1970329131942176
3377704015495520,CTROR|MNLP_**_09CRR|MNLP_**_10CRR|MNLP_**_10CUR,Centre Routier,45.7818,3.11963,0,1970329131942176
3377704015495521,CTROS|MNLP_**_21CRR,Centre Routier,45.7836,3.11873,0,1970329131942176
3377704015495522,CUGNA|MNLP_**_10CGA,Cugnot,45.7812,3.12348,0,1970329131942199
3377704015495525,DAGUR|MNLP_**_03DGA|MNLP_**_08DAR,Daguerre,45.7598,3.09589,0,1970329131941919
3377704015495526,DAUDA|MNLP_**_10DAR|MNLP_**_24DAR,Daudet,45.8147,3.10331,0,1970329131941920
3377704015495528,DEBUA|MNLP_**_03DBA|MNLP_**_21DBA|MNLP_**_24DBA,Debussy,45.8177,3.10703,0,1970329131941921
3377704015495529,DEBUR|MNLP_**_03DBR|MNLP_**_21DBR|MNLP_**_24DBR,Debussy,45.8178,3.10719,0,1970329131941921
3377704015495530,DEMOA|MNLP_**_A2DEA|MNLP_**_A_DEA,Delille Montlosier,45.7812,3.09045,0,1970329131942136
3377704015495531,DEMOB|MNLP_**_12DEA|MNLP_**_12DER|MNLP_**_27DEA|MNLP_**_27DER|MNLP_**_50DMA,Delille Montlosier,45.7806,3.09133,0,1970329131942136
3377704015495535,DEPAA|MNLP_**_03DPA|MNLP_**_04DPA|MNLP_**_28DPA|MNLP_**_35DPA|MNLP_**_36DPA|MNLP_**_B_DPA,Deux Patriotes,45.781,3.10383,0,1970329131941923
3377704015495533,DEMOR|MNLP_**_A_DER,Delille Montlosier,45.7812,3.09045,0,1970329131942136
3377704015495534,DEMOS|MNLP_**_35DEA|MNLP_**_35DER|MNLP_**_36DEA|MNLP_**_36DER|MNLP_**_50DEA|MNLP_**_A1DEA,Delille Montlosier,45.7806,3.09104,0,1970329131942136
3377704015495537,DESAA|MNLP_**_03DEA|MNLP_**_04DEA|MNLP_**_12DSA|MNLP_**_27DSA,Delille Salford,45.7801,3.09119,0,1970329131941922
3377704015495545,DIOMR|MNLP_**_09DIR,Diomède,45.7838,3.0758,0,1970329131942180
3377704015495546,DOLEA|MNLP_**_12DOA|MNLP_**_27DOA,Dolet,45.765,3.08661,0,1970329131942229
3377704015495536,DEPAR|MNLP_**_03DPR|MNLP_**_04DPR|MNLP_**_28DPR|MNLP_**_B_DPR,Deux Patriotes,45.7809,3.10355,0,1970329131941923
3377704015495542,DIDEA|MNLP_**_03DIA|MNLP_**_28DIA|MNLP_**_31DIA,Diderot,45.8047,3.10926,0,1970329131941925
3377704015495538,DESAB|MNLP_**_07DSA,Delille Salford,45.7798,3.09188,0,1970329131941922
3377704015495539,DESAR|MNLP_**_03DER|MNLP_**_04DER|MNLP_**_07DSR|MNLP_**_27DSR|MNLP_**_35DSR|MNLP_**_36DSR,Delille Salford,45.7797,3.09198,0,1970329131941922
3377704015495551,DOMES|MNLP_**_22DOR|MNLP_**_34DOR|MNLP_**_90DOR,Dômes,45.7314,3.19129,0,1970329131942092
3377704015495543,DIDER|MNLP_**_03DIR|MNLP_**_28DIR|MNLP_**_31DIR,Diderot,45.8054,3.10942,0,1970329131941925
3377704015495544,DIOMA|MNLP_**_09DIA,Diomède,45.7844,3.07846,0,1970329131942180
3377704015495547,DOLER|MNLP_**_12DOR|MNLP_**_27DOR,Dolet,45.7647,3.08661,0,1970329131942229
3377704015495548,DOMEA|MNLP_**_C_DOA,Dômes,45.732,3.1933,0,1970329131942092
3377704015495549,DOMEB|MNLP_**_22DOA|MNLP_**_34DOA|MNLP_**_90DOA,Dômes,45.732,3.19335,0,1970329131942092
3377704015495550,DOMER|MNLP_**_C_DOR,Dômes,45.7315,3.19283,0,1970329131942092
3377704015495554,DRELR|MNLP_**_08DRR,Drelon,45.7702,3.08009,0,1970329131942169
3377704015495557,DRJAA|MNLP_**_32DJA,Docteur Jay,45.8272,3.05067,0,1970329131942367
3377704015495563,DUCSA|MNLP_**_22LDA,Les Ducs,45.7386,3.20504,0,1970329131942319
3377704015495570,EDQUA|MNLP_**_20EQR|MNLP_**_21EQA,Edgar Quinet,45.805,3.11873,0,1970329131942299
3377704015495555,DRHOA|MNLP_**_04DHA|MNLP_**_10DHR|MNLP_**_22DHR|MNLP_**_28DHR,Docteur Hospital,45.7942,3.08773,0,1970329131942006
3377704015495556,DRHOR|MNLP_**_04DHR|MNLP_**_10DHA|MNLP_**_22DHA|MNLP_**_28DHA,Docteur Hospital,45.7941,3.08812,0,1970329131942006
3377704015495558,DRJAR|MNLP_**_32DJR,Docteur Jay,45.8278,3.05144,0,1970329131942367
3377704015495559,DRMAA|MNLP_**_20DOA,Docteur Mally,45.7884,3.12512,0,1970329131942276
3377704015495560,DRMAR|MNLP_**_20DOR,Docteur Mally,45.7885,3.12556,0,1970329131942276
3377704015495561,DUCLA|MNLP_**_B_DUA,Duclaux,45.7762,3.0718,0,1970329131942446
3377704015495562,DUCLR|MNLP_**_B_DUR,Duclaux,45.7762,3.0719,0,1970329131942446
3377704015495564,DUCSR|MNLP_**_22LDR,Les Ducs,45.7383,3.20537,0,1970329131942319
3377704015495565,DUNAA|MNLP_**_12DUR|MNLP_**_27DUA,Les Tonnelles,45.7292,3.10237,0,1970329131941926
3377704015495566,DURTR|MNLP_**_05DUA|MNLP_**_05DUR|MNLP_**_10DUA|MNLP_**_10DUR,DURTOL,45.7974,3.05248,0,1970329131942007
3377704015495581,EGPER|MNLP_**_13EGR,Eglise de Pérignat,45.7366,3.14113,0,1970329131942246
3377704015495582,ELREA|MNLP_**_10ERA|MNLP_**_20ERA,Élisée Reclus,45.7906,3.13532,0,1970329131942203
3377704015495576,EGARA|MNLP_**_32EAA,"Église d'Argnat",45.845,3.03084,0,1970329131942368
3377704015495571,EDQUR|MNLP_**_20EQA|MNLP_**_21EQR,Edgar Quinet,45.8051,3.11878,0,1970329131942299
3377704015495572,EDROA|MNLP_**_10RSA|MNLP_**_20RSA,Edmond Rostand,45.7989,3.17107,0,1970329131942202
3377704015495573,EDROR|MNLP_**_10RSR|MNLP_**_20RSR,Edmond Rostand,45.7987,3.1712,0,1970329131942202
3377704015495574,EGALA|MNLP_**_26EGA,Égalité,45.7462,3.0608,0,1970329131942056
3377704015495575,EGALR|MNLP_**_05EGA|MNLP_**_26EGR,Égalité,45.7464,3.05991,0,1970329131942056
3377704015495577,EGARR|MNLP_**_32EAR,"Église d'Argnat",45.8449,3.03096,0,1970329131942368
3377704015495580,EGPEA|MNLP_**_13EGA,Eglise de Pérignat,45.7366,3.14112,0,1970329131942246
3377704015495585,EMROR|MNLP_**_22ERR,Émile Roux,45.7368,3.21443,0,1970329131942315
3377704015495602,FLAUA|MNLP_**_13FTA|MNLP_**_21FLR,Flaubert,45.758,3.12629,0,1970329131942096
3377704015496028,MNLP_**_31PRA|PLROA,Pl. F. Rougeyron,45.8494,3.08595,0,1970329131942364
3377704015495583,ELRER|MNLP_**_10ERR|MNLP_**_20ERR,Élisée Reclus,45.7905,3.1355,0,1970329131942203
3377704015495584,EMROA|MNLP_**_22ERA,Émile Roux,45.7367,3.21453,0,1970329131942315
3377704015495587,ERCRA|MNLP_**_22ECA|MNLP_**_23ECA|MNLP_**_C_ECA,Ernest Cristal,45.759,3.14463,0,1970329131942093
3377704015495588,ERCRR|MNLP_**_22ECR|MNLP_**_23ECR|MNLP_**_C_ECR,Ernest Cristal,45.759,3.14405,0,1970329131942093
3377704015495589,ESMAA|MNLP_**_34EMA,Espace des Marronniers,45.7219,3.18592,0,1970329131942378
3377704015495590,ESMAR|MNLP_**_34EMR,Espace des Marronniers,45.7218,3.18591,0,1970329131942378
3377704015495591,ESPLA|MNLP_**_03ESA|MNLP_**_04ESA|MNLP_**_07ESA|MNLP_**_12ESA|MNLP_**_27ESA|MNLP_**_35ESA|MNLP_**_36ESA|MNLP_**_82ESA,Esplanade,45.7774,3.09559,0,1970329131941927
3377704015495592,ESPLR|MNLP_**_03ESR|MNLP_**_04ESR|MNLP_**_07ESR|MNLP_**_27ESR|MNLP_**_35ESR|MNLP_**_36ESR,Esplanade,45.7777,3.09508,0,1970329131941927
3377704015495593,EUROA|MNLP_**_05EUA|MNLP_**_40EUA|MNLP_**_B_EUA,Europe,45.7744,3.06307,0,1970329131942057
3377704015495598,FACUA|MNLP_**_08FAA|MNLP_**_09FAA|MNLP_**_10FAA|MNLP_**_13FAA|MNLP_**_B_FAA|MNLP_**_C_FAA,Faculté,45.7763,3.09087,0,1970329131942094
3377704015495596,EUROR|MNLP_**_05EUR|MNLP_**_40EUR|MNLP_**_B_EUR,Europe,45.7744,3.06323,0,1970329131942057
3377704015495597,EUROT|MNLP_**_13ERR,Europe,45.7745,3.06403,0,1970329131942057
3377704015495609,FOBAB|MNLP_**_21FBA|MNLP_**_A1FBR,Fontaine du Bac,45.7629,3.12332,0,1970329131942100
3377704015495610,FOBAR|MNLP_**_A_FBR,Fontaine du Bac,45.7623,3.122,0,1970329131942100
3377704015495599,FACUR|MNLP_**_08FAR|MNLP_**_09FAR|MNLP_**_10FAR|MNLP_**_13FAR|MNLP_**_B_FAR|MNLP_**_C_FAR,Faculté,45.7763,3.09114,0,1970329131942094
3377704015495603,FLAUR|MNLP_**_13FTR|MNLP_**_21FLA,Flaubert,45.7565,3.12812,0,1970329131942096
3377704015495604,FLEUA|MNLP_**_07FLA|MNLP_**_09FLA|MNLP_**_28FLA|MNLP_**_28FLR|MNLP_**_C_FLA,Fleury,45.7745,3.09619,0,1970329131942097
3377704015495608,FOBAA|MNLP_**_A_FBA,Fontaine du Bac,45.7623,3.12202,0,1970329131942100
3377704015495611,FOBAS|MNLP_**_13FBR|MNLP_**_21FBR|MNLP_**_A1FBA,Fontaine du Bac,45.763,3.12338,0,1970329131942100
3377704015495613,FOIRA|MNLP_**_90FOA|MNLP_**_C_FOA,Foirail,45.7321,3.20313,0,1970329131942098
3377704015495605,FLEUB|MNLP_**_10FLA|MNLP_**_28FLR,Fleury,45.7755,3.09613,0,1970329131942097
3377704015495606,FLEUC|MNLP_**_08FLA,Fleury,45.7761,3.09611,0,1970329131942097
3377704015495616,FOISR|MNLP_**_21FOR|MNLP_**_A1FOA,Foisses,45.7609,3.12274,0,1970329131942099
3377704015495635,GACOA|MNLP_**_34GAA,Gare Le Cendre/Orcet,45.7234,3.18915,0,1970329131942380
3377704015495617,FONTA|MNLP_**_03FOA|MNLP_**_10FOA,Fontcimagne,45.7977,3.10432,0,1970329131941928
3377704015495614,FOIRR|MNLP_**_90FOR|MNLP_**_C_FOR,Foirail,45.7314,3.20403,0,1970329131942098
3377704015495615,FOISA|MNLP_**_21FOA|MNLP_**_A1FOR,Foisses,45.7607,3.1226,0,1970329131942099
3377704015495618,FONTR|MNLP_**_03FOR|MNLP_**_10FOR,Fontcimagne,45.7979,3.10472,0,1970329131941928
3377704015495619,FOREA|MNLP_**_12FOA|MNLP_**_27FOA,Forest,45.7431,3.09532,0,1970329131942230
3377704015495620,FORER|MNLP_**_12FOR|MNLP_**_27FOR,Forest,45.7432,3.09539,0,1970329131942230
3377704015495621,FORUA|MNLP_**_34FOA,Forum,45.7194,3.18352,0,1970329131942379
3377704015495622,FORUR|MNLP_**_34FOR,Forum,45.7193,3.18358,0,1970329131942379
3377704015495623,FOURA|MNLP_**_04FNA|MNLP_**_04FNR|MNLP_**_32FRA,Fournières,45.789,3.0637,0,1970329131942008
3377704015495624,FOURR|MNLP_**_05FOA|MNLP_**_10FRR|MNLP_**_32FRR|MNLP_**_C_FRR,Fournières,45.7891,3.06374,0,1970329131942008
3377704015495627,FRLUA|MNLP_**_10LUA,Frères Lumière,45.7893,3.13516,0,1970329131942205
3377704015495628,FRLUR|MNLP_**_10LUR,Frères Lumière,45.7894,3.13514,0,1970329131942205
3377704015495629,FRROA|MNLP_**_05ROR|MNLP_**_09ROA|MNLP_**_C_ROA,F. Roosevelt,45.7777,3.07257,0,1970329131942058
3377704015495632,FRROR|MNLP_**_09ROR|MNLP_**_10ROR|MNLP_**_C_ROR,F. Roosevelt,45.777,3.07348,0,1970329131942058
3377704015495644,GALOR|MNLP_**_13GAR,Galoubies,45.7674,3.06924,0,1970329131942247
3377704015495645,GALUA|MNLP_**_20GLA,Gay Lussac,45.79,3.12998,0,1970329131942278
3377704015495631,FRROC|MNLP_**_10ROA,F. Roosevelt,45.7772,3.07212,0,1970329131942058
3377704015495636,GACOR|MNLP_**_34GAR,Gare Le Cendre/Orcet,45.7234,3.18915,0,1970329131942380
3377704015495637,GAGAA|MNLP_**_10GGA|MNLP_**_20GGA,Gagarine,45.7926,3.14478,0,1970329131942206
3377704015495638,GAGAR|MNLP_**_10GGR|MNLP_**_20GGR,Gagarine,45.7925,3.14424,0,1970329131942206
3377704015495639,GAILA|MNLP_**_A_GAA,Gaillard,45.7797,3.08176,0,1970329131942060
3377704015495640,GAILB|MNLP_**_05GAA|MNLP_**_05GAR|MNLP_**_50GDA,Gaillard,45.7803,3.08192,0,1970329131942060
3377704015495641,GAILC|MNLP_**_32GAA|MNLP_**_32GAR|MNLP_**_50GAA,Gaillard,45.7803,3.08245,0,1970329131942060
3377704015495649,GANDR|MNLP_**_35SDR|MNLP_**_36SDR,Gandaillat,45.7786,3.15747,0,1970329131942392
3377704015495650,GAPEA|MNLP_**_05GPA|MNLP_**_32GPA,G. Péri,45.7809,3.07617,0,1970329131942059
3377704015495642,GAILR|MNLP_**_A_GAR,Gaillard,45.7797,3.08181,0,1970329131942060
3377704015495643,GALOA|MNLP_**_13GAA,Galoubies,45.7676,3.06924,0,1970329131942247
3377704015495646,GALUR|MNLP_**_20GLR,Gay Lussac,45.79,3.13054,0,1970329131942278
3377704015495647,GAMAR|MNLP_**_13GYR,Gamay,45.7487,3.13449,0,1970329131942267
3377704015495662,GASNS|MNLP_**_35GSA|MNLP_**_36GSA|MNLP_**_40GSA,Gare SNCF,45.7788,3.09945,0,1970329131941931
3377704015495663,GASNT|MNLP_**_08GSA|MNLP_**_08GSR|MNLP_**_13GRR|MNLP_**_35GSR|MNLP_**_36GSR,Gare SNCF,45.7784,3.09905,0,1970329131941931
3377704015495648,GANDA|MNLP_**_35SDA|MNLP_**_36SDA,Gandaillat,45.7788,3.15724,0,1970329131942392
3377704015495651,GAPER|MNLP_**_05GPR|MNLP_**_32GPR,G. Péri,45.7808,3.07638,0,1970329131942059
3377704015495652,GARDA|MNLP_**_C_GDA,Gardes,45.7407,3.18848,0,1970329131942101
3377704015495653,GARDR|MNLP_**_22GAR|MNLP_**_C_GDR,Gardes,45.7406,3.18918,0,1970329131942101
3377704015495654,GAREA|MNLP_**_22GRA,Garennes,45.7314,3.20763,0,1970329131942316
3377704015495655,GARER|MNLP_**_22GRR,Garennes,45.7312,3.2073,0,1970329131942316
3377704015495656,GARGA|MNLP_**_35GAA|MNLP_**_36GAA,Gargailles,45.7705,3.189,0,1970329131942393
3377704015495657,GARGR|MNLP_**_35GAR|MNLP_**_36GAR,Gargailles,45.7702,3.1894,0,1970329131942393
3377704015495658,GARNA|MNLP_**_05GNA|MNLP_**_B_GAA,Garnaudes,45.773,3.06051,0,1970329131942061
3377704015495667,GECHR|MNLP_**_20GEA|MNLP_**_20GER,GERZAT Champfleuri,45.8353,3.14766,0,1970329131942197
3377704015495659,GARNR|MNLP_**_05GNR|MNLP_**_B_GAR,Garnaudes,45.7728,3.0606,0,1970329131942061
3377704015495660,GASNA|MNLP_**_03GSA|MNLP_**_04GSA|MNLP_**_28GSA|MNLP_**_B_GSA|MNLP_**_D5GSA,Gare SNCF,45.7787,3.09945,0,1970329131941931
3377704015495664,GAZEA|MNLP_**_03GZA|MNLP_**_12GZR|MNLP_**_27GZA,ROMAGNAT La Gazelle,45.738,3.10476,0,1970329131941976
3377704015495661,GASNR|MNLP_**_03GSR|MNLP_**_04GSR|MNLP_**_28GSR|MNLP_**_40GSR|MNLP_**_B_GSR,Gare SNCF,45.7788,3.09965,0,1970329131941931
3377704015495669,GEROR|MNLP_**_20GRR,GERZAT Rochefort,45.831,3.15133,0,1970329131942279
3377704015495670,GLACA|MNLP_**_09GLA|MNLP_**_10GLA|MNLP_**_10GLR|MNLP_**_28GLA|MNLP_**_28GLR,Glacière,45.7923,3.07932,0,1970329131942182
3377704015495665,GAZER|MNLP_**_03GZR|MNLP_**_12GZA|MNLP_**_27GZR,ROMAGNAT La Gazelle,45.7381,3.10496,0,1970329131941976
3377704015495666,GEBEA|MNLP_**_09GBA|MNLP_**_09GBR,Georges Besse,45.7842,3.13898,0,1970329131942181
3377704015495674,GONCA|MNLP_**_32GOA|MNLP_**_C_GOA,Goncourt,45.784,3.06868,0,1970329131942207
3377704015495668,GEROA|MNLP_**_20GRA,GERZAT Rochefort,45.8307,3.15122,0,1970329131942279
3377704015495685,GRAVR|MNLP_**_20GVA|MNLP_**_21GVR|MNLP_**_22GVA|MNLP_**_31GVR,Gravanches,45.7894,3.11813,0,1970329131942280
3377704015495686,GRCOA|MNLP_**_34GCA|MNLP_**_34GCR,Graveyroux Commerces,45.7285,3.1862,0,1970329131942381
3377704015495671,GLACR|MNLP_**_09GLR,Glacière,45.7922,3.07923,0,1970329131942182
3377704015495672,GOMEA|MNLP_**_10GMR|MNLP_**_24GOR,Gomel,45.8125,3.0997,0,1970329131941932
3377704015495675,GONCR|MNLP_**_32GOR|MNLP_**_C_GOR,Goncourt,45.7839,3.06883,0,1970329131942207
3377704015495676,GOURA|MNLP_**_21GGA,Gourgat,45.7538,3.13921,0,1970329131942103
3377704015495677,GOURR|MNLP_**_21GGR,Gourgat,45.7539,3.13925,0,1970329131942103
3377704015495678,GRAIA|MNLP_**_31GRA,Graviers,45.8458,3.10941,0,1970329131942356
3377704015495679,GRAIR|MNLP_**_31GRR,Graviers,45.8459,3.10956,0,1970329131942356
3377704015495680,GRANA|MNLP_**_36GVA,Grangevieille,45.7759,3.19194,0,1970329131942403
3377704015495681,GRANR|MNLP_**_36GVR,Grangevieille,45.7757,3.19115,0,1970329131942403
3377704015495682,GRASA|MNLP_**_35GRA|MNLP_**_36GRA,Grassette,45.7736,3.18178,0,1970329131942394
3377704015495689,GRVEA|MNLP_**_22GER|MNLP_**_90GEA|MNLP_**_C_GEA,Gergovie,45.7331,3.18804,0,1970329131942102
3377704015495683,GRASR|MNLP_**_35GRR|MNLP_**_36GRR,Grassette,45.7736,3.18121,0,1970329131942394
3377704015495684,GRAVA|MNLP_**_20GVR|MNLP_**_21GVA|MNLP_**_22GVR|MNLP_**_31GVA,Gravanches,45.7889,3.11788,0,1970329131942280
3377704015495687,GRENA|MNLP_**_21GNA,Grenier,45.7692,3.12367,0,1970329131942300
3377704015495692,GRVIR|MNLP_**_A_GVR,Gravière,45.7897,3.11007,0,1970329131942438
3377704015495693,GRVNA|MNLP_**_26GRA,Gravenoire,45.7533,3.06247,0,1970329131942062
3377704015495688,GRENR|MNLP_**_21GNR,Grenier,45.7691,3.12399,0,1970329131942300
3377704015495701,HACMR|MNLP_**_13HCA|MNLP_**_13HCR,Hauts de CHAMALIÈRES,45.7822,3.05318,0,1970329131942248
3377704015495690,GRVER|MNLP_**_90GER|MNLP_**_C_GER,Gergovie,45.7329,3.18778,0,1970329131942102
3377704015495691,GRVIA|MNLP_**_A2GVA|MNLP_**_A_GVA,Gravière,45.7897,3.11007,0,1970329131942438
3377704015495694,GRVNR|MNLP_**_05GVA|MNLP_**_26GRR,Gravenoire,45.7532,3.06237,0,1970329131942062
3377704015495695,GUTEA|MNLP_**_10GUA,Gutenberg,45.7838,3.1309,0,1970329131942208
3377704015495696,GUTER|MNLP_**_10GUR,Gutenberg,45.7838,3.13088,0,1970329131942208
3377704015495697,HACHA|MNLP_**_A1HCA|MNLP_**_A_HCA,Hauts de Chanturgue,45.8107,3.1071,0,1970329131941933
3377704015495698,HACHB|MNLP_**_10HTR|MNLP_**_21HCA|MNLP_**_31HTA,Hauts de Chanturgue,45.8113,3.10622,0,1970329131941933
3377704015495699,HACHR|MNLP_**_A1HCR|MNLP_**_A_HCR,Hauts de Chanturgue,45.8107,3.10714,0,1970329131941933
3377704015495704,HEBAR|MNLP_**_07HBR,Henri Barbusse,45.7834,3.08431,0,1970329131942151
3377704015495700,HACHS|MNLP_**_10HTA|MNLP_**_21HCR|MNLP_**_31HTR,Hauts de Chanturgue,45.8112,3.1063,0,1970329131941933
3377704015495702,HALLA|MNLP_**_35HAA|MNLP_**_36HAA,Hallstadt,45.7717,3.18633,0,1970329131942395
3377704015495708,HERMR|MNLP_**_21HER,"L'Hermitage",45.7653,3.12559,0,1970329131942306
3377704015495703,HALLR|MNLP_**_35HAR|MNLP_**_36HAR,Hallstadt,45.7718,3.18555,0,1970329131942395
3377704015495705,HERBA|MNLP_**_10HEA|MNLP_**_35HEA|MNLP_**_36HEA,Herbet,45.7802,3.11395,0,1970329131942209
3377704015495711,HUMAA|MNLP_**_08HMA|MNLP_**_13HMA,08-mai,45.7704,3.07865,0,1970329131942152
3377704015495706,HERBR|MNLP_**_10HER|MNLP_**_35HER|MNLP_**_36HER,Herbet,45.7794,3.11538,0,1970329131942209
3377704015495709,HOVIA|MNLP_**_A_HVA,Hôtel de Ville,45.7806,3.08508,0,1970329131942439
3377704015495730,JAUDA|MNLP_**_A2JAA|MNLP_**_A_JAA,Jaude,45.7768,3.08172,0,1970329131942106
3377704015495710,HOVIR|MNLP_**_A_HVR,Hôtel de Ville,45.7805,3.08509,0,1970329131942439
3377704015495712,HUMAR|MNLP_**_13HMR,08-mai,45.7723,3.07814,0,1970329131942152
3377704015495713,ILIAA|MNLP_**_03ILA|MNLP_**_20ILR|MNLP_**_21ILA,Iliane,45.8078,3.12604,0,1970329131941934
3377704015495714,ILIAR|MNLP_**_03ILR|MNLP_**_20ILA|MNLP_**_21ILR,Iliane,45.8078,3.12641,0,1970329131941934
3377704015495716,INDUA|MNLP_**_22INA|MNLP_**_C_INA,Industrie,45.7502,3.1596,0,1970329131942104
3377704015495717,INDUR|MNLP_**_22INR|MNLP_**_C_INR,Industrie,45.75,3.15951,0,1970329131942104
3377704015495718,INMEA|MNLP_**_03INA|MNLP_**_21INA,Institut des Métiers,45.8103,3.12901,0,1970329131941935
3377704015495719,INMER|MNLP_**_03INR|MNLP_**_21INR,Institut des Métiers,45.8105,3.12913,0,1970329131941935
3377704015495722,JALOA|MNLP_**_20JAA,Jaloustre,45.8226,3.14533,0,1970329131942281
3377704015495723,JALOR|MNLP_**_20JAR,Jaloustre,45.8224,3.14543,0,1970329131942281
3377704015495724,JANOA|MNLP_**_26JAA,Janolle,45.7314,3.07194,0,1970329131942328
3377704015495725,JANOR|MNLP_**_26JAR,Janolle,45.7314,3.07206,0,1970329131942328
3377704015495726,JARDA|MNLP_**_21JDA,Jardiniers,45.8025,3.11972,0,1970329131942301
3377704015495727,JARDR|MNLP_**_21JDR,Jardiniers,45.8033,3.11946,0,1970329131942301
3377704015495734,JEJAA|MNLP_**_04JJA,Jean Jaurès,45.7673,3.08188,0,1970329131942009
3377704015495729,JARZR|MNLP_**_21JAR|MNLP_**_24JAR,Jarzy,45.83,3.08077,0,1970329131941936
3377704015495731,JAUDB|MNLP_**_09JAA|MNLP_**_10JAA|MNLP_**_40JAA|MNLP_**_41JAA|MNLP_**_A1JAA|MNLP_**_B_JAA|MNLP_**_C2JAA|MNLP_**_C_JAA,Jaude,45.7771,3.08077,0,1970329131942106
3377704015495743,JOCUR|MNLP_**_03JCR|MNLP_**_12JCA|MNLP_**_27JCR,Joliot Curie,45.7519,3.11754,0,1970329131941937
3377704015495744,JOGAA|MNLP_**_22JGA|MNLP_**_90JGA|MNLP_**_C_JGA,COURNON J. Gardet,45.7396,3.19645,0,1970329131942105
3377704015495732,JAUDR|MNLP_**_A2JAR|MNLP_**_A_JAR,Jaude,45.7769,3.08177,0,1970329131942106
3377704015495733,JAUDS|MNLP_**_09JAR|MNLP_**_10JAR|MNLP_**_13JAR|MNLP_**_40JAR|MNLP_**_41JAR|MNLP_**_A1JAR|MNLP_**_B_JAR|MNLP_**_C_JAR,Jaude,45.777,3.08125,0,1970329131942106
3377704015495735,JEJAR|MNLP_**_04JJR,Jean Jaurès,45.768,3.08298,0,1970329131942009
3377704015495736,JEMEA|MNLP_**_10JMA|MNLP_**_20JMA,Jean Mermoz,45.7914,3.13911,0,1970329131942210
3377704015495737,JEMER|MNLP_**_10JMR|MNLP_**_20JMR,Jean Mermoz,45.7917,3.14037,0,1970329131942210
3377704015495738,JEMOA|MNLP_**_09JEA,Jean Moulin,45.7771,3.11662,0,1970329131942183
3377704015495741,JEMOS|MNLP_**_09JER,Jean Moulin,45.7765,3.11691,0,1970329131942183
3377704015495747,JOGAT|MNLP_**_22JOR|MNLP_**_34JGR|MNLP_**_90JGR,COURNON J. Gardet,45.739,3.19635,0,1970329131942105
3377704015495748,JUVEA|MNLP_**_10JVA,Jules Verne,45.7862,3.13663,0,1970329131942211
3377704015495742,JOCUA|MNLP_**_03JCA|MNLP_**_12JCR,Joliot Curie,45.7516,3.11672,0,1970329131941937
3377704015495745,JOGAR|MNLP_**_34JGA|MNLP_**_C_JGR,COURNON J. Gardet,45.7393,3.19598,0,1970329131942105
3377704015495746,JOGAS|MNLP_**_22JGR,COURNON J. Gardet,45.7395,3.19658,0,1970329131942105
3377704015495749,JUVER|MNLP_**_10JVR,Jules Verne,45.7864,3.13689,0,1970329131942211
3377704015495750,KENNA|MNLP_**_21KEA,Kennedy,45.8001,3.12113,0,1970329131942064
3377704015495751,KENNR|MNLP_**_21KER,Kennedy,45.8003,3.12127,0,1970329131942064
3377704015495752,KEPLA|MNLP_**_09KEA|MNLP_**_35KEA|MNLP_**_36KEA,Kepler,45.7796,3.12036,0,1970329131942184
3377704015495756,LACR|MNLP_**_90LLR|MNLP_**_C_LLR,Lac,45.7311,3.19654,0,1970329131942110
3377704015495757,LACXA|MNLP_**_27LAA,Lacheix,45.7236,3.08329,0,1970329131942335
3377704015495753,KEPLR|MNLP_**_35KER|MNLP_**_36KER,Kepler,45.7793,3.12144,0,1970329131942184
3377704015495754,LACA|MNLP_**_90LLA|MNLP_**_C_LLA,Lac,45.7318,3.19607,0,1970329131942110
3377704015495767,LANDR|MNLP_**_13LAR|MNLP_**_A1LAA,Landais,45.7638,3.11601,0,1970329131942249
3377704015495768,LAOUA|MNLP_**_22LUA|MNLP_**_28LUA,Ladoux Ouest,45.8411,3.12092,0,1970329131941941
3377704015495758,LACXR|MNLP_**_27LAR,Lacheix,45.7236,3.08344,0,1970329131942335
3377704015495762,LAGAA|MNLP_**_A2LAA|MNLP_**_A3LAA|MNLP_**_A_LAA,Lagarlaye,45.7733,3.08266,0,1970329131942441
3377704015495763,LAGAR|MNLP_**_A2LAR|MNLP_**_A_LAR,Lagarlaye,45.7733,3.08261,0,1970329131942441
3377704015495764,LAIAA|MNLP_**_35AAA|MNLP_**_36AAA,AIA,45.778,3.16697,0,1970329131942389
3377704015495773,LCHAA|MNLP_**_28LCR|MNLP_**_C_LCA,Le Château,45.7702,3.10673,0,1970329131942111
3377704015495765,LAIAR|MNLP_**_35AAR|MNLP_**_36AAR,AIA,45.7777,3.16782,0,1970329131942389
3377704015495766,LANDA|MNLP_**_13LAA|MNLP_**_A1LAR,Landais,45.7639,3.11673,0,1970329131942249
3377704015495769,LAOUR|MNLP_**_22LUR|MNLP_**_28LUR,Ladoux Ouest,45.8409,3.12098,0,1970329131941941
3377704015495770,LAPTA|MNLP_**_03TYA|MNLP_**_22LXR|MNLP_**_28TYA,Ladoux Porte de Troyes,45.8412,3.12913,0,1970329131941942
3377704015495771,LAYAA|MNLP_**_05LTR|MNLP_**_10LAA,Layat,45.7912,3.05355,0,1970329131942011
3377704015495780,LECER|MNLP_**_36LCR,Le Cèdre,45.7996,3.25306,0,1970329131942404
3377704015495781,LECLA|MNLP_**_03LCA,Leclanché,45.8065,3.11079,0,1970329131941944
3377704015495772,LAYAR|MNLP_**_04LYA|MNLP_**_04LYR|MNLP_**_05LTA|MNLP_**_10LAR,Layat,45.7913,3.05356,0,1970329131942011
3377704015495774,LCHAR|MNLP_**_28LCA|MNLP_**_C_LCR,Le Château,45.77,3.10791,0,1970329131942111
3377704015495775,LDOUA|MNLP_**_05LAA|MNLP_**_26LAR,Landouzy,45.7671,3.05844,0,1970329131942066
3377704015495776,LDOUR|MNLP_**_05LAR|MNLP_**_26LAA,Landouzy,45.7673,3.05877,0,1970329131942066
3377704015495777,LEBLA|MNLP_**_A2LBA|MNLP_**_A_LBA,Léon Blum,45.7628,3.09853,0,1970329131941946
3377704015495778,LEBLR|MNLP_**_A_LBR,Léon Blum,45.7629,3.09839,0,1970329131941946
3377704015495779,LECEA|MNLP_**_36LCA,Le Cèdre,45.7997,3.25271,0,1970329131942404
3377704015495782,LECLR|MNLP_**_03LCR,Leclanché,45.8065,3.11098,0,1970329131941944
3377704015495783,LECOA|MNLP_**_03LEA|MNLP_**_04LEA|MNLP_**_08LEA|MNLP_**_12LEA|MNLP_**_13LEA|MNLP_**_27LEA|MNLP_**_50LEA|MNLP_**_A1LEA,Lecoq,45.7714,3.08677,0,1970329131941945
3377704015495786,LEHOR|MNLP_**_13HOR,PERIGNAT Les Horts,45.725,3.14712,0,1970329131942257
3377704015495787,LEMAR|MNLP_**_32ARR,ARGNAT Le Mas,45.8442,3.02581,0,1970329131942365
3377704015495784,LECOR|MNLP_**_03LER|MNLP_**_04LER|MNLP_**_08LER|MNLP_**_12LER|MNLP_**_13LER|MNLP_**_27LER|MNLP_**_A1LER,Lecoq,45.7719,3.08691,0,1970329131941945
3377704015495785,LEHOA|MNLP_**_13HOA,PERIGNAT Les Horts,45.7251,3.14706,0,1970329131942257
3377704015495788,LEPOA|MNLP_**_35LPA|MNLP_**_36LPA,LEMPDES Le Pontel,45.7759,3.19634,0,1970329131942396
3377704015495789,LEPOR|MNLP_**_35LPR|MNLP_**_36LPR,LEMPDES Le Pontel,45.7757,3.19619,0,1970329131942396
3377704015495790,LERUA|MNLP_**_36RUA,Le Ruchon,45.7978,3.23858,0,1970329131942405
3377704015495791,LERUR|MNLP_**_36RUR,Le Ruchon,45.7976,3.23849,0,1970329131942405
3377704015495792,LETRA|MNLP_**_32LEA,Letrade,45.8254,3.05035,0,1970329131942371
3377704015495794,LGRVA|MNLP_**_04LGA|MNLP_**_04LGR|MNLP_**_32GRA,La Grave,45.7967,3.06,0,1970462275928129
3377704015495798,LIERA|MNLP_**_04LLA|MNLP_**_09LLR,Les Lierres,45.7951,3.07576,0,1970329131942013
3377704015495795,LGRVR|MNLP_**_32GRR,La Grave,45.7967,3.05993,0,1970329131942506
3377704015495803,LIMOR|MNLP_**_05LIA|MNLP_**_10LIR|MNLP_**_32LIR|MNLP_**_C_LIR,Limousin,45.7874,3.06538,0,1970329131942113
3377704015495804,LIONA|MNLP_**_12LIA|MNLP_**_27LIA,Liondards,45.759,3.0866,0,1970329131942231
3377704015495797,LHOMR|MNLP_**_34LHR,Lhomet,45.743,3.20108,0,1970329131942384
3377704015495799,LIERR|MNLP_**_04LLR|MNLP_**_09LLA,Les Lierres,45.7953,3.07615,0,1970329131942013
3377704015495800,LIMAA|MNLP_**_20LIA|MNLP_**_22LMA,Limagne,45.8315,3.14539,0,1970329131942284
3377704015495819,LYABR|MNLP_**_A1BRR|MNLP_**_A_BRR,Lycée A. Brugière,45.8017,3.11044,0,1970329131942214
3377704015495820,LYABS|MNLP_**_10LYA|MNLP_**_22LYR|MNLP_**_31LYR,Lycée A. Brugière,45.8021,3.11079,0,1970329131942214
3377704015495801,LIMAR|MNLP_**_20LIR|MNLP_**_22LMR,Limagne,45.8312,3.14541,0,1970329131942284
3377704015495802,LIMOA|MNLP_**_05LIR|MNLP_**_10LIA|MNLP_**_32LIA,Limousin,45.7883,3.06421,0,1970329131942113
3377704015495805,LIONR|MNLP_**_12LIR|MNLP_**_27LIR,Liondards,45.759,3.08666,0,1970329131942231
3377704015495806,LITRR|MNLP_**_08LIR,Littré,45.7685,3.07959,0,1970329131942170
3377704015495807,LITTA|MNLP_**_32LLA,Les Littes,45.8219,3.05281,0,1970329131942370
3377704015495808,LITTR|MNLP_**_32LLR,Les Littes,45.8217,3.05285,0,1970329131942370
3377704015495809,LIVRA|MNLP_**_90LVA|MNLP_**_C_LVA,Livradois,45.7316,3.19932,0,1970329131942114
3377704015495810,LIVRR|MNLP_**_90LVR|MNLP_**_C_LVR,Livradois,45.731,3.19945,0,1970329131942114
3377704015495811,LMASA|MNLP_**_03LMA,Le Mas,45.7554,3.10405,0,1970329131941943
3377704015495812,LMASR|MNLP_**_03LMR,Le Mas,45.7554,3.10416,0,1970329131941943
3377704015495817,LYABA|MNLP_**_A_BRA,Lycée A. Brugière,45.8017,3.11044,0,1970329131942214
3377704015495818,LYABB|MNLP_**_10LYR|MNLP_**_20LYA|MNLP_**_20LYR|MNLP_**_22LYA|MNLP_**_31LYA|MNLP_**_32LYA|MNLP_**_A1BRA,Lycée A. Brugière,45.8021,3.11076,0,1970329131942214
3377704015495821,LYLAA|MNLP_**_A_FAA,Lycée Lafayette,45.7635,3.12955,0,1970329131941953
3377704015495826,LYSAR|MNLP_**_07APR,Lycée Sidoine Apollinaire,45.7818,3.08705,0,1970329131942143
3377704015495827,MABAA|MNLP_**_34MBA|MNLP_**_34MBR,Maryse Bastié,45.7266,3.18693,0,1970329131942386
3377704015495822,LYLAB|MNLP_**_03LFA|MNLP_**_03LFR|MNLP_**_04LFA|MNLP_**_12LFA|MNLP_**_12LFR|MNLP_**_23LYA|MNLP_**_28LYR|MNLP_**_90FAA|MNLP_**_90FAR|MNLP_**_C_LYA|MNLP_**_YFAYA,Lycée Lafayette,45.7627,3.12949,0,1970329131941953
3377704015495823,LYLAR|MNLP_**_A_FAR,Lycée Lafayette,45.7635,3.1295,0,1970329131941953
3377704015495825,LYSAA|MNLP_**_07APA,Lycée Sidoine Apollinaire,45.7818,3.08634,0,1970329131942143
3377704015495824,LYLAS|MNLP_**_23LYR|MNLP_**_28LYA|MNLP_**_A1FAA|MNLP_**_C_LYR|MNLP_**_YFAYR,Lycée Lafayette,45.7625,3.12917,0,1970329131941953
3377704015495835,MACOR|MNLP_**_34MCR,Mairie de Cournon,45.741,3.20013,0,1970329131942385
3377704015495836,MACUA|MNLP_**_A_MCA,Maison de la Culture,45.7708,3.085,0,1970329131941955
3377704015495832,MACHA|MNLP_**_31MCA,Mairie de Châteaugay,45.8498,3.08417,0,1970329131942361
3377704015495828,MABEA|MNLP_**_04MBA,Mairie de Beaumont,45.7539,3.08524,0,1970329131942015
3377704015495829,MABEB|MNLP_**_08BMA,Mairie de Beaumont,45.7534,3.0868,0,1970329131942015
3377704015495830,MABER|MNLP_**_04MBR,Mairie de Beaumont,45.7545,3.0852,0,1970329131942015
3377704015495833,MACHR|MNLP_**_31MCR,Mairie de Châteaugay,45.8499,3.08415,0,1970329131942361
3377704015495837,MACUB|MNLP_**_03MCA|MNLP_**_A1MCA|MNLP_**_MACUA,Maison de la Culture,45.7703,3.08534,0,1970329131941955
3377704015495838,MACUR|MNLP_**_A2MCR|MNLP_**_ABMCR|MNLP_**_A_MCR,Maison de la Culture,45.7709,3.08501,0,1970329131941955
3377704015495839,MACUS|MNLP_**_03MCR|MNLP_**_82MCA|MNLP_**_82MCR|MNLP_**_A1MCR|MNLP_**_MACUR,Maison de la Culture,45.7703,3.08543,0,1970329131941955
3377704015495854,MANZR|MNLP_**_22MAR|MNLP_**_C_MAR,Manzats,45.7437,3.16665,0,1970329131942116
3377704015495855,MAPAA|MNLP_**_20MPA,Marcel Paul,45.8272,3.12121,0,1970329131942286
3377704015495845,MALEA|MNLP_**_35MLA|MNLP_**_36MLA,Mairie de Lempdes,45.7684,3.19765,0,1970329131942397
3377704015495842,MAILR|MNLP_**_31MLR,Le Maillot,45.8494,3.10266,0,1970329131942358
3377704015495843,MALAA|MNLP_**_31MAA,Malalittes,45.8546,3.08575,0,1970329131942362
3377704015495844,MALAR|MNLP_**_31MAR,Malalittes,45.8543,3.08581,0,1970329131942362
3377704015495846,MALER|MNLP_**_35MLR|MNLP_**_36MLR,Mairie de Lempdes,45.7683,3.19705,0,1970329131942397
3377704015495847,MALVA|MNLP_**_04MLA|MNLP_**_10MVA,Malville,45.7837,3.07212,0,1970329131942016
3377704015495848,MALVR|MNLP_**_04MLR|MNLP_**_10MVR,Malville,45.7845,3.07151,0,1970329131942016
3377704015495849,MAMIA|MNLP_**_03MMA,Marcel Michelin,45.7536,3.11341,0,1970329131941956
3377704015495850,MAMIR|MNLP_**_03MMR,Marcel Michelin,45.7537,3.11322,0,1970329131941956
3377704015495851,MANIA|MNLP_**_10MAA|MNLP_**_20MAA,Maniez,45.7967,3.16448,0,1970329131942215
3377704015495858,MARCA|MNLP_**_20MCA,Marie Curie,45.8359,3.10191,0,1970329131942287
3377704015495852,MANIR|MNLP_**_10MAR|MNLP_**_20MAR,Maniez,45.7967,3.16489,0,1970329131942215
3377704015495853,MANZA|MNLP_**_22MAA|MNLP_**_C_MAA,Manzats,45.744,3.16666,0,1970329131942116
3377704015495856,MAPOA|MNLP_**_07MPA,Maurice Pourchon,45.7893,3.0843,0,1970329131942145
3377704015495861,MARGR|MNLP_**_A_MAR,Margeride,45.7609,3.1199,0,1970329131942250
3377704015495862,MARGS|MNLP_**_13MGR|MNLP_**_A1MAA,Margeride,45.7611,3.12024,0,1970329131942250
3377704015495863,MARMA|MNLP_**_35MAA|MNLP_**_36MAA,Marmilhat,45.7772,3.17563,0,1970329131942398
3377704015495857,MAPOR|MNLP_**_07MPR,Maurice Pourchon,45.7897,3.08425,0,1970329131942145
3377704015495859,MARGA|MNLP_**_A_MAA,Margeride,45.7609,3.11994,0,1970329131942250
3377704015495860,MARGB|MNLP_**_13MGA|MNLP_**_A1MAR,Margeride,45.761,3.12052,0,1970329131942250
3377704015495864,MARMR|MNLP_**_35MAR|MNLP_**_36MAR,Marmilhat,45.7771,3.17577,0,1970329131942398
3377704015495868,MASPA|MNLP_**_07MAA|MNLP_**_28MAA,Maison des Sports,45.7863,3.08438,0,1970329131942144
3377704015495865,MAROA|MNLP_**_03MRA|MNLP_**_12MRR|MNLP_**_27MRA,Mairie de Romagnat,45.7304,3.10359,0,1970329131941954
3377704015495875,MAZER|MNLP_**_04MZR|MNLP_**_26MZA,Mazeyrat,45.7421,3.05896,0,1970329131942018
3377704015495876,MBOIA|MNLP_**_36MBA,Montboissier,45.7982,3.25858,0,1970329131942407
3377704015495866,MAROR|MNLP_**_03MRR|MNLP_**_12MRA|MNLP_**_27MRR,Mairie de Romagnat,45.7306,3.1028,0,1970329131941954
3377704015495867,MARTR|MNLP_**_20MTR,Martyrs,45.8231,3.14615,0,1970329131942295
3377704015495869,MASPR|MNLP_**_07MAR|MNLP_**_28MAR,Maison des Sports,45.7869,3.08458,0,1970329131942144
3377704015495870,MASSA|MNLP_**_13MAA|MNLP_**_D5MAA,Massenet,45.7704,3.06425,0,1970329131942251
3377704015495871,MASSR|MNLP_**_13MAR|MNLP_**_D5MAR,Massenet,45.7702,3.06397,0,1970329131942251
3377704015495872,MATHA|MNLP_**_04MTA|MNLP_**_26MAA,Matharet,45.7479,3.06888,0,1970329131942017
3377704015495891,MILAR|MNLP_**_36MIR,Milan,45.7809,3.20638,0,1970329131942406
3377704015495873,MATHR|MNLP_**_04MTR|MNLP_**_26MAR,Matharet,45.7478,3.06912,0,1970329131942017
3377704015495874,MAZEA|MNLP_**_04MZA|MNLP_**_26MZR,Mazeyrat,45.7418,3.05901,0,1970329131942018
3377704015495877,MBOIR|MNLP_**_36MBR,Montboissier,45.7986,3.25791,0,1970329131942407
3377704015495878,MEDIA|MNLP_**_28MER|MNLP_**_C_MEA,Médicis,45.7698,3.11117,0,1970329131942117
3377704015495879,MEDIR|MNLP_**_28MEA|MNLP_**_C_MER,Médicis,45.7698,3.11052,0,1970329131942117
3377704015495882,MERCA|MNLP_**_03MEA|MNLP_**_21MEA,Mercoeur,45.8096,3.11969,0,1970329131942304
3377704015495883,MERCR|MNLP_**_03MER|MNLP_**_21MER,Mercoeur,45.8096,3.11979,0,1970329131942304
3377704015495884,MEUNA|MNLP_**_13MEA,Meuniers,45.766,3.1052,0,1970329131942252
3377704015495885,MEUNR|MNLP_**_13MER,Meuniers,45.766,3.10463,0,1970329131942252
3377704015495888,MIHOA|MNLP_**_03MHA|MNLP_**_04MHA|MNLP_**_12MHA|MNLP_**_27MHA|MNLP_**_50MHA|MNLP_**_A1MHA,"Michel de l'Hospital",45.7779,3.09007,0,1970329131941957
3377704015495890,MILAA|MNLP_**_36MIA,Milan,45.781,3.20646,0,1970329131942406
3377704015495894,MNLP_**_22MOR|MNLP_**_C_MTR|MONTR,Monteix,45.7442,3.17736,0,1970329131942119
3377704015495895,MNLP_**_90MZA|MNLP_**_C_MZA|MOZAA,Mozart,45.733,3.20623,0,1970329131942120
3377704015495889,MIHOR|MNLP_**_03MHR|MNLP_**_04MHR|MNLP_**_12MHR|MNLP_**_27MHR|MNLP_**_A1MHR,"Michel de l'Hospital",45.7778,3.09035,0,1970329131941957
3377704015495893,MNLP_**_C_MTA|MONTA,Monteix,45.7437,3.1781,0,1970329131942119
3377704015495909,MNLP_**_20MGA|MNLP_**_24MGA|MTGXA,Montgroux,45.8314,3.09665,0,1970329131941960
3377704015495896,MNLP_**_90MZR|MNLP_**_C_MZR|MOZAR,Mozart,45.7331,3.20637,0,1970329131942120
3377704015495899,MNLP_**_28MRR|MNLP_**_C_MRA|MSROA,Maison Rouge,45.7683,3.11787,0,1970329131942115
3377704015495900,MNLP_**_28MRA|MNLP_**_C_MRR|MSROR,Maison Rouge,45.768,3.11835,0,1970329131942115
3377704015495901,MNLP_**_27MOA|MTANA,Montant,45.7289,3.09405,0,1970329131942339
3377704015495902,MNLP_**_27MOR|MTANR,Montant,45.7293,3.09502,0,1970329131942339
3377704015495903,MNLP_**_05MNR|MNLP_**_10MOA|MTCHA,Montcharvais,45.7887,3.05627,0,1970329131942020
3377704015495904,MNLP_**_04MVA|MNLP_**_04MVR|MNLP_**_05MNA|MNLP_**_10MOR|MTCHR,Montcharvais,45.7888,3.05624,0,1970329131942020
3377704015495905,MNLP_**_A_PFA|MTFDA,Montferrand La Fontaine,45.7915,3.11455,0,1970329131942442
3377704015495906,MNLP_**_A_PFR|MTFDR,Montferrand La Fontaine,45.7915,3.11456,0,1970329131942442
3377704015495907,MNLP_**_26MTA|MTGNA,Montagnards,45.7605,3.06204,0,1970329131942067
3377704015495913,MNLP_**_03MTR|MNLP_**_08MTA|MTLBA,Montalembert,45.7568,3.09565,0,1970329131941959
3377704015495908,MNLP_**_05MTA|MNLP_**_26MTR|MTGNR,Montagnards,45.7599,3.06242,0,1970329131942067
3377704015495911,MNLP_**_D5MOA|MTJOA,Montjoly,45.7735,3.06618,0,1970329131942447
3377704015495929,MNLP_**_04NDR|MNLP_**_10NAR|NAUDR,Naudin,45.7849,3.06859,0,1970329131942022
3377704015495930,MNLP_**_03NFA|NESOA,Neuf Soleils,45.7664,3.09611,0,1970329131941961
3377704015495912,MNLP_**_D5MOR|MTJOR,Montjoly,45.7734,3.06586,0,1970329131942447
3377704015495914,MNLP_**_03MTA|MNLP_**_08MTR|MTLBR,Montalembert,45.756,3.09581,0,1970329131941959
3377704015495916,MNLP_**_04MOA|MNLP_**_08MOR|MTPOA,Montpoly,45.7518,3.08091,0,1970329131942021
3377704015495918,MNLP_**_31MTR|MTQUR,Montquerier,45.8507,3.10665,0,1970329131942363
3377704015495919,MNLP_**_26MOA|MTROA,Montrognon,45.7322,3.06643,0,1970329131942330
3377704015495917,MNLP_**_31MTA|MTQUA,Montquerier,45.8508,3.10727,0,1970329131942363
3377704015495920,MNLP_**_26MOR|MTROR,Montrognon,45.7321,3.06641,0,1970329131942330
3377704015495926,MNLP_**_10NVA|MNLP_**_24NAR|NARVA,Narvik,45.8149,3.10581,0,1970329131942217
3377704015495936,MNLP_**_32FAR|NOPFR,Pl. de la Farge,45.809,3.05623,0,1970329131942373
3377704015495937,MNLP_**_22NOA|MNLP_**_34NOA|NOVEA,11-nov,45.7335,3.1921,0,1970329131942307
3377704015495928,MNLP_**_04NDA|MNLP_**_10NAA|NAUDA,Naudin,45.7852,3.06864,0,1970329131942022
3377704015495931,MNLP_**_03NFR|MNLP_**_08NFA|MNLP_**_A1NFR|NESOR,Neuf Soleils,45.7673,3.09594,0,1970329131941961
3377704015495932,MNLP_**_03NSA|MNLP_**_08NFR|MNLP_**_A1NFA|NESOS,Neuf Soleils,45.7665,3.09562,0,1970329131941961
3377704015495933,MNLP_**_03NEA|MNLP_**_10NER|MNLP_**_24NEA|MNLP_**_A1NER|NEYRA,Neyrat,45.8148,3.1077,0,1970329131941962
3377704015495944,MNLP_**_26OCR|OCLER,"L'Oclède",45.7589,3.05528,0,1970329131942329
3377704015495945,MNLP_**_27OPA|MNLP_**_27OPR|OPMER,ROMAGNAT Opme,45.7108,3.09023,0,1970329131942345
3377704015495934,MNLP_**_03NER|MNLP_**_10NEA|MNLP_**_24NER|NEYRR,Neyrat,45.8149,3.10743,0,1970329131941962
3377704015495935,MNLP_**_32FAA|NOPFA,Pl. de la Farge,45.8088,3.05612,0,1970329131942373
3377704015495938,MNLP_**_22NOR|MNLP_**_34NOR|NOVER,11-nov,45.7336,3.19208,0,1970329131942307
3377704015495939,MNLP_**_35NYA|MNLP_**_36NYA|NYMPA,Nymphea,45.7726,3.19609,0,1970329131942399
3377704015495940,MNLP_**_35NYR|MNLP_**_36NYR|NYMPR,Nymphea,45.7725,3.19615,0,1970329131942399
3377704015495941,MNLP_**_13OBA|MNLP_**_50OBA|MNLP_**_A1OBA|OBSEA,Observatoire,45.7642,3.11252,0,1970329131942253
3377704015495957,MNLP_**_09PGA|MNLP_**_09PGR|MNLP_**_A1PGR|PAGAB,La Pardieu Gare,45.7667,3.13414,0,1970329131942186
3377704015495958,MNLP_**_A_PAR|PAGAR,La Pardieu Gare,45.7668,3.13433,0,1970329131942186
3377704015495942,MNLP_**_13OBR|MNLP_**_A1OBR|OBSER,Observatoire,45.764,3.1128,0,1970329131942253
3377704015495943,MNLP_**_26OCA|OCLEA,"L'Oclède",45.7588,3.05521,0,1970329131942329
3377704015495946,MNLP_**_21ORA|MNLP_**_28ORR|MNLP_**_A1ORR|MNLP_**_C_ORA|ORGAA,Oradou Gantière,45.7649,3.12383,0,1970329131942023
3377704015495947,MNLP_**_04OGA|MNLP_**_13ORR|MNLP_**_21ORR|MNLP_**_28ORA|MNLP_**_A1ORA|MNLP_**_C_ORR|ORGAR,Oradou Gantière,45.7646,3.12439,0,1970329131942023
3377704015495950,MNLP_**_13PBA|MNLP_**_D5PBA|PABEA,Paul Bert,45.7719,3.0657,0,1970329131942532
3377704015495951,MNLP_**_13PBR|MNLP_**_D5PBR|PABER,Paul Bert,45.7716,3.06536,0,1970329131942532
3377704015495952,MNLP_**_13CZA|PACEA,Paul Cézanne,45.7802,3.05132,0,1970329131942256
3377704015495953,MNLP_**_13CZR|PACER,Paul Cézanne,45.7808,3.05052,0,1970329131942256
3377704015495954,MNLP_**_20PCR|MNLP_**_20PTR|PACUR,Pasteur Curie,45.7937,3.16499,0,1970329131942225
3377704015495956,MNLP_**_A_PAA|PAGAA,La Pardieu Gare,45.7667,3.13428,0,1970329131942186
3377704015495959,MNLP_**_27PIA|PAILA,Paillards,45.7261,3.09075,0,1970329131942340
3377704015495960,MNLP_**_27PIR|PAILR,Paillards,45.7262,3.09098,0,1970329131942340
3377704015495974,MNLP_**_D3PAR|PARCS,Le Parc,45.7554,3.09781,0,1970329131942158
3377704015495975,MNLP_**_22PAA|MNLP_**_23PAA|MNLP_**_A1PAR|MNLP_**_C_PAA|PARDA,La Pardieu,45.761,3.13282,0,1970329131942107
3377704015495961,MNLP_**_12PAA|MNLP_**_27PLA|PALEA,Pâles,45.741,3.09697,0,1970329131942232
3377704015495962,MNLP_**_12PAR|MNLP_**_27PLR|PALER,Pâles,45.7411,3.09695,0,1970329131942232
3377704015495963,MNLP_**_10PAA|PALIA,Palissy,45.7884,3.13781,0,1970329131942219
3377704015495964,MNLP_**_10PAR|PALIR,Palissy,45.7885,3.1375,0,1970329131942219
3377704015495967,MNLP_**_13MTA|PAMOA,Parc Montjoly,45.7736,3.06747,0,1970329131942254
3377704015495968,MNLP_**_13MTR|PAMOR,Parc Montjoly,45.7735,3.06698,0,1970329131942254
3377704015495969,MNLP_**_28PNR|MNLP_**_C_PNA|PANEA,Pablo Neruda,45.7663,3.12116,0,1970329131942024
3377704015495970,MNLP_**_04PNA|MNLP_**_28PNA|MNLP_**_C_PNR|PANER,Pablo Neruda,45.7657,3.12163,0,1970329131942024
3377704015495971,MNLP_**_08PAA|PARCA,Le Parc,45.754,3.09694,0,1970329131942158
3377704015495972,MNLP_**_D3PAA|PARCB,Le Parc,45.7551,3.09748,0,1970329131942158
3377704015495973,MNLP_**_08PAR|PARCR,Le Parc,45.7538,3.09685,0,1970329131942158
3377704015495989,MNLP_**_09PBA|PBOUA,P. Boulanger,45.7807,3.13619,0,1970329131942185
3377704015495976,MNLP_**_13PAR|MNLP_**_22PAR|MNLP_**_23PAR|MNLP_**_A1PAA|MNLP_**_C_PAR|PARDR,La Pardieu,45.7614,3.13148,0,1970329131942107
3377704015495978,MNLP_**_21JMR|PARLR,Parlette,45.7765,3.11818,0,1970329131942146
3377704015495979,MNLP_**_20PSA|MNLP_**_22PLA|PASCA,Pascal,45.8289,3.14849,0,1970329131942288
3377704015495982,MNLP_**_10PSR|MNLP_**_35PSR|MNLP_**_36PSR|PASNR,Parc SNCF,45.7771,3.10212,0,1970329131941963
3377704015495983,MNLP_**_05PAA|PASTA,Pasteur,45.7643,3.04466,0,1970329131942068
3377704015495980,MNLP_**_20PSR|MNLP_**_22PLR|PASCR,Pascal,45.8286,3.1487,0,1970329131942288
3377704015495981,MNLP_**_09PSA|MNLP_**_10PSA|PASNA,Parc SNCF,45.777,3.10126,0,1970329131941963
3377704015495984,MNLP_**_05PAR|PASTR,Pasteur,45.7644,3.04465,0,1970329131942068
3377704015495985,MNLP_**_20PAA|MNLP_**_22PTA|PATUA,Patural,45.828,3.15093,0,1970329131942289
3377704015495994,MNLP_**_36PCR|PECHR,Petit Champ,45.7962,3.23362,0,1970329131942408
3377704015495995,MNLP_**_20LPA|MNLP_**_22PGA|PEGUA,Les Pègues,45.8241,3.14963,0,1970329131942283
3377704015495986,MNLP_**_20PAR|MNLP_**_22PTR|PATUR,Patural,45.828,3.15097,0,1970329131942289
3377704015495990,MNLP_**_09PBR|PBOUR,P. Boulanger,45.7809,3.13623,0,1970329131942185
3377704015495991,MNLP_**_13BOA|PEBOA,Bonneval,45.7301,3.14413,0,1970329131942241
3377704015495992,MNLP_**_13BOR|PEBOR,Bonneval,45.7304,3.14399,0,1970329131942241
3377704015495993,MNLP_**_36PCA|PECHA,Petit Champ,45.7962,3.23348,0,1970329131942408
3377704015495997,MNLP_**_20PEA|MNLP_**_20PER|MNLP_**_21PEA|MNLP_**_24PEA|PERCA,Les Perches,45.8302,3.09941,0,1970329131941948
3377704015496004,MNLP_**_03PPR|MNLP_**_12PPA|MNLP_**_27PPR|PEUPR,Peuplier,45.7485,3.11064,0,1970329131941965
3377704015496005,MNLP_**_32PCA|PICOA,Pierre Combe,45.8347,3.04754,0,1970329131942372
3377704015495996,MNLP_**_20LPR|MNLP_**_22PGR|PEGUR,Les Pègues,45.8242,3.14962,0,1970329131942283
3377704015496000,MNLP_**_03PUR|MNLP_**_12PEA|MNLP_**_27PER|PEROR,Pérouses,45.7352,3.10492,0,1970329131941964
3377704015496001,MNLP_**_22PEA|MNLP_**_90PEA|PERVA,Pervenches,45.739,3.18713,0,1970329131942122
3377704015495998,MNLP_**_21PER|MNLP_**_24PER|PERCR,Les Perches,45.8304,3.09923,0,1970329131941948
3377704015495999,MNLP_**_03PUA|MNLP_**_12PER|MNLP_**_27PEA|PEROA,Pérouses,45.7353,3.10467,0,1970329131941964
3377704015496002,MNLP_**_22PER|MNLP_**_90PER|PERVR,Pervenches,45.739,3.18754,0,1970329131942122
3377704015496003,MNLP_**_03PLA|MNLP_**_03PPA|MNLP_**_12PPR|MNLP_**_27PPA|PEUPA,Peuplier,45.7485,3.11049,0,1970329131941965
3377704015496006,MNLP_**_32PCR|PICOR,Pierre Combe,45.8346,3.04782,0,1970329131942372
3377704015496008,MNLP_**_22PIA|MNLP_**_C_PIA|PIONA,Pionniers,45.7469,3.16315,0,1970329131942123
3377704015496015,MNLP_**_31PIR|MNLP_**_A1PIR|PISTS,Les Pistes,45.7992,3.11354,0,1970329131942360
3377704015496016,MNLP_**_A_PLA|PLAIA,La Plaine,45.8118,3.11473,0,1970329131941939
3377704015496012,MNLP_**_A_PIA|PISTA,Les Pistes,45.7989,3.11338,0,1970329131942360
3377704015496009,MNLP_**_22PIR|MNLP_**_C_PIR|PIONR,Pionniers,45.7464,3.16355,0,1970329131942123
3377704015496013,MNLP_**_31PIA|MNLP_**_A1PIA|PISTB,Les Pistes,45.7992,3.1132,0,1970329131942360
3377704015496014,MNLP_**_A_PIR|PISTR,Les Pistes,45.799,3.11338,0,1970329131942360
3377704015496017,MNLP_**_21PLA|MNLP_**_A1PLR|PLAIB,La Plaine,45.8117,3.11423,0,1970329131941939
3377704015496018,MNLP_**_A_PLR|PLAIR,La Plaine,45.8117,3.11475,0,1970329131941939
3377704015496019,MNLP_**_21PLR|MNLP_**_A1PLA|PLAIS,La Plaine,45.8117,3.1145,0,1970329131941939
3377704015496021,MNLP_**_03LPR|MNLP_**_08PLA|MNLP_**_A1LPR|PLATA,Les Plats,45.7649,3.09311,0,1970329131941949
3377704015496033,MNLP_**_04PLR|PLVER,Pl. de Verdun,45.7654,3.08294,0,1970329131942025
3377704015496037,MNLP_**_22PCR|POCOS,Pointe de Cournon,45.7531,3.15709,0,1970329131942124
3377704015496038,MNLP_**_22LPA|MNLP_**_90LPA|MNLP_**_C_LPA|POELA,La Poélade,45.7384,3.18005,0,1970329131942108
3377704015496034,MNLP_**_C_PCA|POCOA,Pointe de Cournon,45.755,3.15722,0,1970329131942124
3377704015496022,MNLP_**_03LPA|MNLP_**_08PLR|MNLP_**_A1LPA|PLATR,Les Plats,45.7647,3.09275,0,1970329131941949
3377704015496023,MNLP_**_20PLR|PLCOR,Pl. de la commune,45.8297,3.09846,0,1970329131942297
3377704015496024,MNLP_**_22PJA|PLJEA,Plaine de Jeux,45.7393,3.21381,0,1970329131942321
3377704015496025,MNLP_**_22PJR|PLJER,Plaine de Jeux,45.7393,3.21396,0,1970329131942321
3377704015496029,MNLP_**_31PRR|PLROR,Pl. F. Rougeyron,45.8495,3.08603,0,1970329131942364
3377704015496030,MNLP_**_22SAA|MNLP_**_23PSA|PLSAA,Plaine de Sarliève,45.7447,3.15427,0,1970329131942322
3377704015496031,MNLP_**_22SAR|MNLP_**_23PSR|PLSAR,Plaine de Sarliève,45.7447,3.15429,0,1970329131942322
3377704015496032,MNLP_**_04PLA|PLVEA,Pl. de Verdun,45.7652,3.08199,0,1970329131942025
3377704015496035,MNLP_**_22PCA|POCOB,Pointe de Cournon,45.7532,3.15722,0,1970329131942124
3377704015496036,MNLP_**_C_PCR|POCOR,Pointe de Cournon,45.7548,3.1563,0,1970329131942124
3377704015496039,MNLP_**_22LPR|MNLP_**_90LPR|MNLP_**_C_LPR|POELR,La Poélade,45.7383,3.18025,0,1970329131942108
3377704015496041,MNLP_**_13POA|POMEA,Pommeraie,45.7272,3.14591,0,1970329131942258
3377704015496042,MNLP_**_13POR|POMER,Pommeraie,45.727,3.14592,0,1970329131942258
3377704015496049,MNLP_**_21LPR|PONTR,Le Pont,45.7735,3.12045,0,1970329131942303
3377704015496055,MNLP_**_22PSA|MNLP_**_23POA|MNLP_**_C_PSA|POSAA,Pont de Sarliève,45.7571,3.14887,0,1970329131942125
3377704015496050,MNLP_**_13PRA|MNLP_**_50PRA|POROA,Port Royal,45.7701,3.10184,0,1970329131942259
3377704015496043,MNLP_**_08PNA|MNLP_**_13PNA|MNLP_**_50PNA|MNLP_**_A1PNR|PONAA,Pont de Naud,45.7735,3.0954,0,1970329131941988
3377704015496044,MNLP_**_13PNR|PONAR,Pont de Naud,45.7726,3.09479,0,1970329131941988
3377704015496045,MNLP_**_03PNR|PONAS,Pont de Naud,45.7734,3.09428,0,1970329131941988
3377704015496046,MNLP_**_04POA|MNLP_**_04POR|MNLP_**_32PNA|PONEA,Pont Neuf,45.7914,3.05949,0,1970329131942027
3377704015496047,MNLP_**_32PNR|PONER,Pont neuf,45.7913,3.05941,0,1970329131942027
3377704015496048,MNLP_**_21LPA|PONTA,Le Pont,45.7735,3.12031,0,1970329131942303
3377704015496051,MNLP_**_13PRR|POROR,Port Royal,45.7705,3.10128,0,1970329131942259
3377704015496052,MNLP_**_20POA|PORTA,Portefort,45.799,3.11769,0,1970329131942291
3377704015496053,MNLP_**_20POR|PORTR,Portefort,45.7989,3.11769,0,1970329131942291
3377704015496060,MNLP_**_20SJR|POSJR,Pont St Jean,45.7864,3.11798,0,1970329131942290
3377704015496059,MNLP_**_20SJA|POSJA,Pont St Jean,45.7877,3.12041,0,1970329131942290
3377704015496057,MNLP_**_22PSR|MNLP_**_23POR|MNLP_**_C_PSR|POSAR,Pont de Sarliève,45.7569,3.14937,0,1970329131942125
3377704015496062,MNLP_**_05POA|MNLP_**_26POR|POSTA,Poste,45.7659,3.05647,0,1970329131942069
3377704015496065,MNLP_**_12POR|MNLP_**_27POR|POURR,Pourliat,45.7461,3.09416,0,1970329131942234
3377704015496069,MNLP_**_03PAA|MNLP_**_12PRR|MNLP_**_27PAA|PRATA,Prat,45.746,3.10918,0,1970329131941971
3377704015496066,MNLP_**_04VAA|MNLP_**_08PVA|POVAA,Pont de Vallières,45.7582,3.0808,0,1970329131942026
3377704015496063,MNLP_**_05POR|MNLP_**_26POA|POSTR,Poste,45.766,3.05648,0,1970329131942069
3377704015496064,MNLP_**_12POA|MNLP_**_27POA|POURA,Pourliat,45.7463,3.09404,0,1970329131942234
3377704015496067,MNLP_**_04VAR|POVAR,Pont de Vallières,45.7583,3.08105,0,1970329131942026
3377704015496068,MNLP_**_08PVR|POVAS,Pont de Vallières,45.7587,3.08146,0,1970329131942026
3377704015496071,MNLP_**_12PCA|MNLP_**_27PCA|PRCIA,Percières,45.7568,3.08691,0,1970329131942233
3377704015496070,MNLP_**_03PAR|MNLP_**_12PRA|MNLP_**_27PAR|PRATR,Prat,45.7458,3.10903,0,1970329131941971
3377704015496074,MNLP_**_28PLA|MNLP_**_C_PRR|PRDLR,Pradelle,45.7733,3.09827,0,1970329131942126
3377704015496084,MNLP_**_10PRA|PRMOA,Pré Moreau,45.782,3.12681,0,1970329131942221
3377704015496075,MNLP_**_04PRA|MNLP_**_26PRR|PREGA,Préguille,45.7391,3.05993,0,1970329131942028
3377704015496072,MNLP_**_12PCR|MNLP_**_27PCR|PRCIR,Percières,45.7571,3.08689,0,1970329131942233
3377704015496073,MNLP_**_28PLR|MNLP_**_C_PRA|PRDLA,Pradelle,45.7732,3.09845,0,1970329131942126
3377704015496076,MNLP_**_04PRR|MNLP_**_26PRA|PREGR,Préguille,45.7394,3.05993,0,1970329131942028
3377704015496078,MNLP_**_04PVA|PREVA,Prévert,45.7323,3.0637,0,1970329131942029
3377704015496079,MNLP_**_04PVR|PREVR,Prévert,45.7313,3.06379,0,1970329131942029
3377704015496080,MNLP_**_A2PMA|MNLP_**_A_PMA|PRMAA,1er Mai,45.7854,3.10158,0,1970329131941989
3377704015496081,MNLP_**_04PMA|MNLP_**_28PMA|MNLP_**_40PMA|MNLP_**_B_PMA|MNLP_**_PMAIA|PRMAB,1er Mai,45.7846,3.10054,0,1970329131941989
3377704015496082,MNLP_**_A_PMR|PRMAR,1er Mai,45.7853,3.10159,0,1970329131941989
3377704015496102,MNLP_**_12RAR|MNLP_**_27RNR|RABAR,Rabanesse,45.7675,3.08706,0,1970329131942235
3377704015496103,MNLP_**_13RYA|MNLP_**_50RAA|RADIA,Raye Dieu,45.7686,3.10443,0,1970329131942260
3377704015496083,MNLP_**_04PMR|MNLP_**_28PMR|MNLP_**_40PMR|MNLP_**_A1PRA|MNLP_**_B_PMR|MNLP_**_PMAIR|PRMAS,1er Mai,45.7847,3.10111,0,1970329131941989
3377704015496085,MNLP_**_10PRR|PRMOR,Pré Moreau,45.7823,3.12728,0,1970329131942221
3377704015496086,MNLP_**_03PRA|MNLP_**_10PUA|MNLP_**_28PRA|PRUNA,Pruniers,45.7948,3.10161,0,1970329131941972
3377704015496087,MNLP_**_03PRR|MNLP_**_10PUR|MNLP_**_28PRR|PRUNR,Pruniers,45.7953,3.1021,0,1970329131941972
3377704015496088,MNLP_**_36PAA|PTDAA,"Pont d'Allier",45.7952,3.25841,0,1970329131942409
3377704015496089,MNLP_**_36PAR|PTDAR,"Pont d'Allier",45.7943,3.25828,0,1970329131942409
3377704015496092,MNLP_**_03PGA|PUGEA,Puget,45.7612,3.1003,0,1970329131941973
3377704015496093,MNLP_**_03PGR|PUGER,Puget,45.7611,3.10049,0,1970329131941973
3377704015496094,MNLP_**_04PUA|MNLP_**_10PYR|MNLP_**_28PYR|PUYOA,Puyou,45.7951,3.07922,0,1970329131942030
3377704015496095,MNLP_**_04PUR|MNLP_**_10PYA|MNLP_**_28PYA|PUYOR,Puyou,45.795,3.07904,0,1970329131942030
3377704015496096,MNLP_**_13QCR|MNLP_**_21QCA|QUCHA,Quartier Chambon,45.7525,3.1299,0,1970329131941974
3377704015496097,MNLP_**_03QCA|MNLP_**_12QCA|MNLP_**_12QCR|QUCHB,Quartier Chambon,45.7525,3.12982,0,1970329131941974
3377704015496098,MNLP_**_05QRR|MNLP_**_10QRA|QUROA,Quatre Routes,45.7851,3.06449,0,1970329131942031
3377704015496099,MNLP_**_04QRA|MNLP_**_C_QRA|QUROB,Quatre Routes,45.786,3.06425,0,1970329131942031
3377704015496100,MNLP_**_05QRA|MNLP_**_10QRR|MNLP_**_32QRR|MNLP_**_C_QRR|QUROR,Quatre Routes,45.7858,3.06502,0,1970329131942031
3377704015496115,MNLP_**_13RGR|REGER,Régensburg,45.7706,3.07756,0,1970329131942268
3377704015496101,MNLP_**_12RAA|MNLP_**_27RNA|RABAA,Rabanesse,45.7681,3.08666,0,1970329131942235
3377704015496104,MNLP_**_13RYR|RADIR,Raye Dieu,45.7687,3.10434,0,1970329131942260
3377704015496105,MNLP_**_12RYR|MNLP_**_27RYR|RAYNR,Raynaud,45.7701,3.0872,0,1970329131942238
3377704015496106,MNLP_**_13ROA|MNLP_**_50ROA|RCHFA,Rochefeuille,45.7658,3.10856,0,1970329131942261
3377704015496107,MNLP_**_13ROR|RCHFR,Rochefeuille,45.7659,3.10827,0,1970329131942261
3377704015496108,MNLP_**_36CHA|RDLYA,PONT DU CHÂTEAU Rte de Lyon,45.7888,3.26593,0,1970329131942410
3377704015496109,MNLP_**_36CHR|RDLYR,PONT DU CHÂTEAU Rte de Lyon,45.7888,3.26594,0,1970329131942410
3377704015496110,MNLP_**_08RBR|MNLP_**_12RBR|MNLP_**_27RBR|REBRR,René Brut,45.7528,3.08812,0,1970329131942239
3377704015496111,MNLP_**_36RCA|RECAA,René Cassin,45.7996,3.24865,0,1970329131942411
3377704015496112,MNLP_**_36RCR|RECAR,René Cassin,45.7995,3.24768,0,1970329131942411
3377704015496113,MNLP_**_04REA|REDOA,Redon,45.7231,3.06728,0,1970329131942032
3377704015496118,MNLP_**_10RER|MNLP_**_20RER|REPUR,République,45.7942,3.16231,0,1970329131942226
3377704015496114,MNLP_**_04RER|REDOR,Redon,45.7229,3.06736,0,1970329131942032
3377704015496116,MNLP_**_26REA|RENOA,Renoux,45.7645,3.05588,0,1970329131942070
3377704015496133,MNLP_**_09RDR|MNLP_**_09RIR|MNLP_**_35RDA|MNLP_**_36RDA|RODIR,Rodolphe Diesel,45.7797,3.13689,0,1970329131942192
3377704015496117,MNLP_**_05REA|MNLP_**_26RER|RENOR,Renoux,45.7645,3.05597,0,1970329131942070
3377704015496119,MNLP_**_08REA|MNLP_**_12REA|MNLP_**_27REA|RESIA,Résistance,45.7503,3.09116,0,1970329131942160
3377704015496122,MNLP_**_08RIA|MNLP_**_RIVIA|RIVIA,Rivière,45.7683,3.07801,0,1970329131942161
3377704015496123,MNLP_**_08RIR|MNLP_**_RIVIR|RIVIR,Rivière,45.7686,3.07768,0,1970329131942161
3377704015496124,MNLP_**_04BZA|ROBEA,Route de Berzet,45.7279,3.06389,0,1970329131942035
3377704015496120,MNLP_**_08RER|MNLP_**_12RER|MNLP_**_27RER|RESIR,Résistance,45.75,3.09037,0,1970329131942160
3377704015496121,MNLP_**_08RSR|RESIS,Résistance,45.7509,3.09116,0,1970329131942160
3377704015496125,MNLP_**_04BZR|ROBER,Route de Berzet,45.7288,3.06428,0,1970329131942035
3377704015496126,MNLP_**_04RBA|MNLP_**_08RNA|ROBRA,Roches Brunes,45.7556,3.08489,0,1970329131942033
3377704015496127,MNLP_**_04RBR|MNLP_**_08RNR|ROBRR,Roches Brunes,45.7563,3.08437,0,1970329131942033
3377704015496128,MNLP_**_04LRA|ROCHA,Les Roches,45.7482,3.07661,0,1970329131942014
3377704015496129,MNLP_**_04LRR|ROCHR,Les Roches,45.7483,3.07697,0,1970329131942014
3377704015496131,MNLP_**_32RDA|RODEA,Roche Demie,45.828,3.05446,0,1970329131942374
3377704015496158,MNLP_**_32SYR|SABAR,"SAYAT Bel'Air",45.8314,3.05456,0,1970329131942375
3377704015496132,MNLP_**_32RDR|RODER,Roche Demie,45.8282,3.05435,0,1970329131942374
3377704015496135,MNLP_**_09RZA|MNLP_**_35RZA|MNLP_**_36RZA|RONZA,Ronzières,45.7792,3.12466,0,1970329131942188
3377704015496134,MNLP_**_03RGA|MNLP_**_03RGR|MNLP_**_27GEA|ROGER,ROMAGNAT Gergovia,45.7264,3.10125,0,1970329131941975
3377704015496138,MNLP_**_05RAR|MNLP_**_40RAR|MNLP_**_B_RAA|MNLP_**_B_RAR|ROPAR,ROYAT Pl. Allard,45.7679,3.05623,0,1970329131942072
3377704015496139,MNLP_**_05RDR|MNLP_**_26RAA|ROPAS,ROYAT Pl. Allard,45.7675,3.05646,0,1970329131942072
3377704015496140,MNLP_**_05RPA|ROPEA,ROYAT Pépinière,45.7656,3.04175,0,1970329131942071
3377704015496136,MNLP_**_09RZR|MNLP_**_35RZR|MNLP_**_36RZR|RONZR,Ronzières,45.779,3.12683,0,1970329131942188
3377704015496137,MNLP_**_05RAA|MNLP_**_26RAR|MNLP_**_40RAA|ROPAB,ROYAT Pl. Allard,45.7673,3.0565,0,1970329131942072
3377704015496141,MNLP_**_05RPR|MNLP_**_40RPR|ROPER,ROYAT Pépinière,45.7657,3.04176,0,1970329131942071
3377704015496142,MNLP_**_03RPR|MNLP_**_12ROA|MNLP_**_27ROA|ROPMA,Pl. F. Mitterrand,45.7299,3.10042,0,1970329131941987
3377704015496143,MNLP_**_12ROR|ROPMR,Pl. F. Mitterrand,45.7294,3.10013,0,1970329131941987
3377704015496144,MNLP_**_12RSA|MNLP_**_27RSA|ROSEA,Roseraie,45.7367,3.09898,0,1970329131942236
3377704015496145,MNLP_**_12RSR|MNLP_**_27RSR|ROSER,Roseraie,45.7361,3.09908,0,1970329131942236
3377704015496146,MNLP_**_04RSA|MNLP_**_10RGA|MNLP_**_41ROA|ROSSA,Rossignol,45.7851,3.07081,0,1970329131942034
3377704015496147,MNLP_**_04RSR|MNLP_**_10RGR|ROSSR,Rossignol,45.7852,3.0707,0,1970329131942034
3377704015496148,MNLP_**_13RNR|MNLP_**_21ROA|ROUSA,Roussillon,45.753,3.13115,0,1970329131942127
3377704015496151,MNLP_**_03ROA|ROUVA,Rouvier,45.8065,3.11453,0,1970329131941977
3377704015496152,MNLP_**_03ROR|ROUVR,Rouvier,45.8064,3.11458,0,1970329131941977
3377704015496153,MNLP_**_07ALA|SAALA,Salvador Allende,45.773,3.1168,0,1970329131942147
3377704015496149,MNLP_**_21RNR|ROUSB,Roussillon,45.7526,3.13282,0,1970329131942127
3377704015496150,MNLP_**_13RNA|MNLP_**_21ROR|ROUSR,Roussillon,45.7531,3.13135,0,1970329131942127
3377704015496154,MNLP_**_07ALR|SAALR,Salvador Allende,45.773,3.11735,0,1970329131942147
3377704015496155,MNLP_**_10SAA|SAANA,St André,45.7774,3.0682,0,1970329131942129
3377704015496156,MNLP_**_10SAR|SAANR,St André,45.7773,3.06914,0,1970329131942129
3377704015496157,MNLP_**_32SYA|SABAA,"SAYAT Bel'Air",45.8315,3.0546,0,1970329131942375
3377704015496164,MNLP_**_27SAR|SACHR,Saulzet Le Chaud,45.7141,3.07029,0,1970329131942348
3377704015496171,MNLP_**_13ETA|SAETA,"Sable d'Étampes",45.7678,3.0645,0,1970329131942262
3377704015496165,MNLP_**_04SCA|SACOA,Salins Coubertin,45.7697,3.083,0,1970329131942036
3377704015496161,MNLP_**_05SQR|MNLP_**_10SBA|SABOA,Square Sabourin,45.7945,3.05274,0,1970329131942037
3377704015496162,MNLP_**_04SQA|MNLP_**_04SQR|MNLP_**_05SQA|MNLP_**_10SBR|SABOR,Square Sabourin,45.7946,3.05277,0,1970329131942037
3377704015496163,MNLP_**_27SAA|SACHA,Saulzet Le Chaud,45.7133,3.07151,0,1970329131942348
3377704015496166,MNLP_**_04SCR|SACOR,Salins Coubertin,45.7697,3.08313,0,1970329131942036
3377704015496167,MNLP_**_13SCA|SACRA,Sacré Coeur,45.7719,3.09892,0,1970329131942263
3377704015496168,MNLP_**_13SCR|SACRR,Sacré Coeur,45.7719,3.0989,0,1970329131942263
3377704015496174,MNLP_**_08SPR|MNLP_**_13SPR|SAPAR,Salins Pasteur,45.7716,3.08192,0,1970329131942162
3377704015496175,MNLP_**_03SAA|MNLP_**_20SDR|MNLP_**_21SAA|SARDA,Sardou,45.8078,3.12274,0,1970329131941978
3377704015496178,MNLP_**_28LSA|MNLP_**_C_LSR|SARRR,La Sarre,45.7694,3.11538,0,1970329131942109
3377704015496172,MNLP_**_13ETR|SAETR,"Sable d'Étampes",45.7677,3.06455,0,1970329131942262
3377704015496173,MNLP_**_08SPA|MNLP_**_13SPA|MNLP_**_50SPA|MNLP_**_D5SPA|SAPAA,Salins Pasteur,45.7716,3.08249,0,1970329131942162
3377704015496176,MNLP_**_03SAR|MNLP_**_20SDA|MNLP_**_21SAR|SARDR,Sardou,45.8077,3.12211,0,1970329131941978
3377704015496177,MNLP_**_28LSR|MNLP_**_C_LSA|SARRA,La Sarre,45.7696,3.11491,0,1970329131942109
3377704015496180,MNLP_**_34SAA|SAUNA,La Saunière,45.7173,3.18818,0,1970329131942382
3377704015496181,MNLP_**_34SAR|SAUNR,La Saunière,45.7173,3.18818,0,1970329131942382
3377704015496182,MNLP_**_12SZA|SAUTA,Sauzettes,45.751,3.12421,0,1970329131941979
3377704015496183,MNLP_**_03SZA|MNLP_**_03SZR|MNLP_**_12SZR|SAUTR,Sauzettes,45.7508,3.12329,0,1970329131941979
3377704015496184,MNLP_**_05SAR|MNLP_**_10SVA|SAVAA,Savarounes,45.7793,3.06239,0,1970329131942128
3377704015496189,MNLP_**_27SER|SERVR,La Serve,45.7274,3.09175,0,1970329131942334
3377704015496185,MNLP_**_05SAA|MNLP_**_10SVR|SAVAR,Savarounes,45.779,3.06237,0,1970329131942128
3377704015496186,MNLP_**_03SVA|MNLP_**_12SVR|MNLP_**_27SVA|SAVEA,St Verny,45.7395,3.10621,0,1970329131941984
3377704015496193,MNLP_**_A_SJR|SJDOR,St Jacques Dolet,45.7649,3.08904,0,1970329131942443
3377704015496194,MNLP_**_A_LOA|SJLOA,St Jacques Loucheur,45.7612,3.09471,0,1970329131941982
3377704015496187,MNLP_**_03SVR|MNLP_**_12SVA|MNLP_**_27SVR|SAVER,St Verny,45.7398,3.10644,0,1970329131941984
3377704015496188,MNLP_**_27SEA|SERVA,La Serve,45.7275,3.0917,0,1970329131942334
3377704015496207,MNLP_**_03SJA|MNLP_**_08SJR|STJAR,St Jacques,45.7572,3.09667,0,1970329131941981
3377704015496208,MNLP_**_03SMR|MNLP_**_12SMA|STMAA,St Martin,45.7502,3.12169,0,1970329131941983
3377704015496192,MNLP_**_A_SJA|SJDOA,St Jacques Dolet,45.7648,3.08899,0,1970329131942443
3377704015496195,MNLP_**_03LOR|MNLP_**_08LOA|MNLP_**_A1LOR|SJLOB,St Jacques Loucheur,45.7614,3.09451,0,1970329131941982
3377704015496196,MNLP_**_A_LOR|SJLOR,St Jacques Loucheur,45.7613,3.09458,0,1970329131941982
3377704015496199,MNLP_**_13SGR|SOGRR,Sounely Gravins,45.7396,3.14039,0,1970329131942264
3377704015496200,MNLP_**_09SOA|SOULA,Soulet,45.7763,3.10824,0,1970329131942189
3377704015496197,MNLP_**_03LOA|MNLP_**_08LOR|MNLP_**_50LOA|MNLP_**_A1LOA|SJLOS,St Jacques Loucheur,45.7612,3.09474,0,1970329131941982
3377704015496198,MNLP_**_13SGA|SOGRA,Sounely Gravins,45.7396,3.14036,0,1970329131942264
3377704015496201,MNLP_**_09SOR|SOULR,Soulet,45.7763,3.10855,0,1970329131942189
3377704015496204,MNLP_**_03SPA|MNLP_**_12SPR|MNLP_**_27SPA|SPORA,Les Sports,45.7349,3.10296,0,1970329131941950
3377704015496213,MNLP_**_04STA|STMUA,Stade P. Marcombes,45.7614,3.08213,0,1970329131942038
3377704015496205,MNLP_**_03SPR|MNLP_**_12SPA|MNLP_**_27SPR|SPORR,Les Sports,45.7349,3.10259,0,1970329131941950
3377704015496206,MNLP_**_03SJR|MNLP_**_08SJA|STJAA,St Jacques,45.7573,3.09695,0,1970329131941981
3377704015496209,MNLP_**_03SMA|MNLP_**_12SMR|STMAR,St Martin,45.7502,3.12078,0,1970329131941983
3377704015496210,MNLP_**_A2SMA|MNLP_**_A_SMA|STMMA,Stade M. Michelin,45.7878,3.10634,0,1970329131942444
3377704015496211,MNLP_**_B_SMA|MNLP_**_B_SMR|STMMB,Stade M. Michelin,45.7877,3.10643,0,1970329131942444
3377704015496212,MNLP_**_A_SMR|STMMR,Stade M. Michelin,45.7877,3.10641,0,1970329131942444
3377704015496214,MNLP_**_08STA|STMUB,Stade P. Marcombes,45.7618,3.08329,0,1970329131942038
3377704015496215,MNLP_**_04STR|MNLP_**_08STR|STMUR,Stade P. Marcombes,45.7608,3.08207,0,1970329131942038
3377704015496216,MNLP_**_07SRA|STRAA,St Rames,45.773,3.10231,0,1970329131942148
3377704015496217,MNLP_**_07SRR|STRAR,St Rames,45.7729,3.10241,0,1970329131942148
3377704015496218,MNLP_**_04SUA|MNLP_**_09SUR|SULLA,Sully,45.7925,3.07396,0,1970329131942039
3377704015496219,MNLP_**_04SUR|MNLP_**_09SUA|SULLR,Sully,45.7925,3.07426,0,1970329131942039
3377704015496220,MNLP_**_05TAR|MNLP_**_10TAA|TAMAA,Tamaris,45.7889,3.06284,0,1970329131942040
3377704015496221,MNLP_**_04TAA|MNLP_**_04TAR|MNLP_**_05TAA|MNLP_**_10TAR|MNLP_**_C_TAR|TAMAR,Tamaris,45.7883,3.06296,0,1970329131942040
3377704015496222,MNLP_**_05TER|MNLP_**_13TCA|TECHA,Teilhard de Chardin,45.776,3.06135,0,1970329131942073
3377704015496223,MNLP_**_05TEA|MNLP_**_13TCR|TECHR,Teilhard de Chardin,45.7756,3.06257,0,1970329131942073
3377704015496224,MNLP_**_27TEA|TEYTA,Les Teytos,45.7249,3.08549,0,1970329131942337
3377704015496228,MNLP_**_08THR|THEUR,Theuriet,45.7664,3.0781,0,1970329131942163
3377704015496229,MNLP_**_08TOA|THOMA,Poncillon,45.762,3.08534,0,1970329131942164
3377704015496225,MNLP_**_05THA|MNLP_**_B_THA|THERA,Thermes,45.7701,3.05814,0,1970329131942074
3377704015496234,MNLP_**_07TIR|TILNR,Tillon,45.7749,3.12724,0,1970329131942149
3377704015496226,MNLP_**_05THR|MNLP_**_B_THR|THERR,Thermes,45.7699,3.0581,0,1970329131942074
3377704015496227,MNLP_**_08THA|THEUA,Theuriet,45.7663,3.07817,0,1970329131942163
3377704015496230,MNLP_**_04TTA|THTHA,Thévenot Thibaud,45.7885,3.08993,0,1970329131942041
3377704015496231,MNLP_**_04TTR|THTHR,Thévenot Thibaud,45.7884,3.08998,0,1970329131942041
3377704015496237,MNLP_**_12TOR|MNLP_**_27TOR|TOCQR,Tocqueville,45.7345,3.09861,0,1970329131942237
3377704015496233,MNLP_**_27TIR|TILLR,Tilleuls,45.7253,3.08817,0,1970329131942349
3377704015496232,MNLP_**_27TIA|TILLA,Tilleuls,45.7253,3.08818,0,1970329131942349
3377704015496235,MNLP_**_12TOA|MNLP_**_27TCA|TOCQA,Tocqueville,45.7334,3.09831,0,1970329131942237
3377704015496242,MNLP_**_05TRR|MNLP_**_10TVA|TRAVA,Traversin,45.7835,3.06323,0,1970329131942130
3377704015496236,MNLP_**_27TCA|MNLP_**_27TOA|TOCQB,Tocqueville,45.733,3.09795,0,1970329131942237
3377704015496248,MNLP_**_20TXR|TRIOR,Trioux,45.8022,3.1172,0,1970329131942293
3377704015496249,MNLP_**_22TRA|MNLP_**_90TRA|MNLP_**_C_TRA|TROEA,Troènes,45.7375,3.17549,0,1970329131942131
3377704015496243,MNLP_**_05TRA|MNLP_**_10TVR|TRAVR,Traversin,45.7833,3.06314,0,1970329131942130
3377704015496244,MNLP_**_04TRA|MNLP_**_04TRR|MNLP_**_09TCR|MNLP_**_09TRA|MNLP_**_09TRR|TRCHR,Trémonteix Charcot,45.7926,3.07094,0,1970329131942042
3377704015496247,MNLP_**_20TXA|TRIOA,Trioux,45.8024,3.11717,0,1970329131942293
3377704015496254,MNLP_**_03UNA|MNLP_**_50UNA|MNLP_**_A1UNA|UNIVB,Universités,45.7713,3.08894,0,1970329131941985
3377704015496255,MNLP_**_A_UNR|UNIVR,Universités,45.7712,3.08894,0,1970329131941985
3377704015496250,MNLP_**_22TRR|MNLP_**_90TRR|MNLP_**_C_TRR|TROER,Troènes,45.7374,3.17564,0,1970329131942131
3377704015496251,MNLP_**_09REA|MNLP_**_10TRA|MNLP_**_10TRR|MNLP_**_28TRA|MNLP_**_28TRR|TRREA,Trois Résistants,45.7937,3.0774,0,1970329131942190
3377704015496260,MNLP_**_A_VEA|VEGNA,Les Vergnes,45.8128,3.1276,0,1970329131941951
3377704015496252,MNLP_**_09RER|TRRER,Trois Résistants,45.7936,3.07736,0,1970329131942190
3377704015496253,MNLP_**_A_UNA|UNIVA,Universités,45.7712,3.08894,0,1970329131941985
3377704015496256,MNLP_**_03UNR|MNLP_**_50UVA|MNLP_**_A1UNR|UNIVS,Universités,45.7712,3.08851,0,1970329131941985
3377704015496257,MNLP_**_08VAA|MNLP_**_08VAR|VALLR,Vallières,45.7593,3.08403,0,1970329131942165
3377704015496258,MNLP_**_34VCA|VECAA,Verger du Caire,45.7181,3.18667,0,1970329131942388
3377704015496268,MNLP_**_07VER|MNLP_**_09VEA|MNLP_**_C_VER|VERTS,Vertaizon,45.7747,3.09994,0,1970329131942137
3377704015496269,MNLP_**_A_VIA|VGNEA,Les Vignes,45.8027,3.10662,0,1970329131941952
3377704015496259,MNLP_**_34VCR|VECAR,Verger du Caire,45.7182,3.18707,0,1970329131942388
3377704015496261,MNLP_**_A_VER|VEGNR,Les Vergnes,45.8127,3.12765,0,1970329131941951
3377704015496262,MNLP_**_26VEA|VERGA,Vergers,45.756,3.06417,0,1970329131942075
3377704015496263,MNLP_**_05VEA|MNLP_**_26VER|VERGR,Vergers,45.7566,3.06401,0,1970329131942075
3377704015496264,MNLP_**_07VNA|VERNA,Vernière,45.7959,3.08545,0,1970329131942150
3377704015496265,MNLP_**_07VNR|VERNR,Vernière,45.7966,3.08459,0,1970329131942150
3377704015496280,MNLP_**_28VNR|MNLP_**_C_VIA|VINCA,"Vincent d'Indy",45.7712,3.10159,0,1970329131942133
3377704015496267,MNLP_**_09VER|VERTR,Vertaizon,45.7746,3.1013,0,1970329131942137
3377704015496270,MNLP_**_03VIA|MNLP_**_22VGA|MNLP_**_28VIA|MNLP_**_31VIA|VGNEB,Les Vignes,45.8025,3.10718,0,1970329131941952
3377704015496271,MNLP_**_A_VIR|VGNER,Les Vignes,45.8026,3.10667,0,1970329131941952
3377704015496272,MNLP_**_03VIR|MNLP_**_10VIR|MNLP_**_20VIA|MNLP_**_20VIR|MNLP_**_22VGR|MNLP_**_28VIR|VGNES,Les Vignes,45.8019,3.10676,0,1970329131941952
3377704015496273,MNLP_**_31VIR|VGNET,Les Vignes,45.8028,3.10773,0,1970329131941952
3377704015496274,MNLP_**_03VGA|VIGEA,Vigenaud,45.7636,3.09872,0,1970329131941986
3377704015496275,MNLP_**_03VGR|VIGER,Vigenaud,45.764,3.09844,0,1970329131941986
3377704015496277,MNLP_**_22VHR|MNLP_**_90VHR|MNLP_**_C_VHR|VIHUR,Victor Hugo,45.738,3.20891,0,1970329131942533
3377704015496279,MNLP_**_13VIR|VILLR,Villars,45.7754,3.05958,0,1970329131942076
3377704015496290,MNLP_**_04WIA|WILSA,Wilson,45.73,3.06429,0,1970329131942043
3377704015496278,MNLP_**_05VIR|MNLP_**_13VIA|VILLA,Villars,45.7754,3.05934,0,1970329131942076
3377704015496281,MNLP_**_28VNA|MNLP_**_C_VIR|VINCR,"Vincent d'Indy",45.771,3.10187,0,1970329131942133
3377704015496282,MNLP_**_22VVA|MNLP_**_34VIA|VIVAA,Vivarais,45.7351,3.19277,0,1970329131942324
3377704015496283,MNLP_**_22VVR|MNLP_**_34VIR|VIVAR,Vivarais,45.7353,3.1928,0,1970329131942324
3377704015496284,MNLP_**_08VOA|VOLNA,Volney,45.7637,3.07994,0,1970329131942166
3377704015496285,MNLP_**_08VOR|VOLNR,Volney,45.7637,3.07999,0,1970329131942166
3377704015496286,MNLP_**_13VOA|VOLTA,Voltaire - INSPE,45.7685,3.07577,0,1970329131942265
3377704015496287,MNLP_**_13VOR|VOLTR,Voltaire - INSPE,45.7682,3.0746,0,1970329131942265
3377704015496288,MNLP_**_05VRR|MNLP_**_13VRA|VOROA,Voie Romaine,45.7754,3.05463,0,1970329131942077
3377704015496289,MNLP_**_13VRR|VOROR,Voie Romaine,45.7754,3.0548,0,1970329131942077
3377704015496291,MNLP_**_04WIR|WILSR,Wilson,45.7301,3.06434,0,1970329131942043
3377704015496353,LAPTR|MNLP_**_03TYR|MNLP_**_22LXA|MNLP_**_28TYR,Ladoux Porte de Troyes,45.8413,3.12922,0,1970329131941942
3377704015496354,MNLP_**_03PDA|MNLP_**_22PDR|MNLP_**_28PDA|POTUA,Porte de Turin,45.8408,3.12512,0,1970329131942510
3377704015496346,MNLP_**_21ZIA|ZIRIA,AUBIÈRE Z.I. Ribes,45.7549,3.14448,0,1970329131942080
3377704015496347,MNLP_**_21ZIR|ZIRIR,AUBIÈRE Z.I. Ribes,45.7548,3.14353,0,1970329131942080
3377704015496351,ARTIA|MNLP_**_03AEA,Artière,45.7531,3.11741,0,1970329131941890
3377704015496355,MNLP_**_03PDR|MNLP_**_22PDA|MNLP_**_28PDR|POTUR,Porte de Turin,45.8408,3.12521,0,1970329131942510
3377704015496376,COGPA|MNLP_**_10PHA,Collège G. Philippe,45.7963,3.11574,0,1970329131942198
3377704015496385,MNLP_**_C_TAA|TAMAT,Tamaris,45.788,3.06293,0,1970329131942040
3377704015496386,MNLP_**_07TIA|TILNA,Tillon,45.7752,3.12773,0,1970329131942149
3377704015496382,MNLP_**_13QCA|MNLP_**_13QUA|MNLP_**_21QCR|QUCHR,Quartier Chambon,45.7525,3.12982,0,1970329131941974
3377704015496379,KEPLS|MNLP_**_09KER,Kepler,45.7788,3.12092,0,1970329131942184
3377704015496387,BLPAA|MNLP_**_10BLA|MNLP_**_20BPA,Blaise Pascal,45.7948,3.16283,0,1970329131942516
3377704015496394,MAAUR|MNLP_**_10MDR|MNLP_**_20MDR,"Mairie d'Aulnat",45.7951,3.16533,0,1970329131942515
3377704015496398,GAPDA|MNLP_**_40PDA,Gare du Panoramique des Dômes,45.7716,2.9851,0,1970329131942517
3377704015496392,LEMOA|MNLP_**_03LYA|MNLP_**_21LEA,Lemoy,45.8171,3.12259,0,1970329131942514
3377704015496393,LEMOR|MNLP_**_03LYR|MNLP_**_21LER,Lemoy,45.8172,3.12262,0,1970329131942514
3377704015496395,MNLP_**_20PCA|PACUA,Pasteur Curie,45.7937,3.16488,0,1970329131942225
3377704015496397,CHLDR|MNLP_**_31CDR,CHÂTEAUGAY Le Châlard,45.854,3.08907,0,1970329131942353
3377704015496404,BOISA|MNLP_**_26BOA,Boisvallon,45.7469,3.06338,0,1970329131942518
3377704015496399,GAPDR|MNLP_**_40PDR,Gare du Panoramique des Dômes,45.7717,2.98511,0,1970329131942517
3377704015496400,LAFLA|MNLP_**_40FAA,"La Font de l'arbre",45.7686,3.00601,0,1970329131942553
3377704015496401,LAFLR|MNLP_**_40FAR,"La Font de l'arbre",45.7687,3.00597,0,1970329131942553
3377704015496414,MNLP_**_21JMA|PARLB,Parlette,45.7763,3.11813,0,1970329131942146
3377704015496405,BOISR|MNLP_**_26BOR,Boisvallon,45.7482,3.06311,0,1970329131942518
3377704015496416,MNLP_**_07PAR|SURER,Les Sureaux,45.773,3.11397,0,1970329131942524
3377704015496417,CHPFA|MNLP_**_10CHA|MNLP_**_28CHA,Champflour,45.7897,3.09252,0,1970329131942525
3377704015496415,MNLP_**_07PAA|SUREA,Les Sureaux,45.7731,3.11335,0,1970329131942524
3377704015496418,CHPFR|MNLP_**_10CHR|MNLP_**_28CHR,Champflour,45.7895,3.09182,0,1970329131942525
3377704015496440,CRNER|MNLP_**_A_CNR,Croix de Neyrat,45.8143,3.10687,0,1970329131941918
3377704015496481,CHAMB|MNLP_**_10CMR|MNLP_**_24CHR|MNLP_**_A1CHR,Champratel,45.8162,3.11366,0,1970329131941906
3377704015496482,CHAMR|MNLP_**_A_CHR,Champratel,45.8149,3.11223,0,1970329131941906
3377704015496483,CHAMS|MNLP_**_10CMA|MNLP_**_24CHA|MNLP_**_A1CHA,Champratel,45.8148,3.11213,0,1970329131941906
3377704015496484,CRNEB|MNLP_**_21CNA|MNLP_**_31CNA|MNLP_**_A1CNA,Croix de Neyrat,45.8139,3.10691,0,1970329131941918
3377704015496485,MNLP_**_A_SGA|STGMA,Stade G. Montpied,45.8131,3.12107,0,1970329131942531
3377704015496486,MNLP_**_A_SGR|STGMR,Stade G. Montpied,45.8131,3.12107,0,1970329131942531
3377704015496496,MNLP_**_22VHA|MNLP_**_90VHA|MNLP_**_C_VHA|VIHUA,Victor Hugo,45.7383,3.20793,0,1970329131942533
3377704015497077,ARBRA|MNLP_**_D5ABA,Aristide Briand,45.7738,3.06391,0,1970329131942550
3377704015497018,24CEA|MNLP_**_24CEA,CEBAZAT CHU L.Michel,45.8398,3.09201,0,1970329131941902
3377704015497083,COACT|MNLP_**_CAMUS,Collège A. Camus,45.8081,3.10825,0,1970329131942437
3377704015497084,CRNES|MNLP_**_21CNR|MNLP_**_24CNR|MNLP_**_31CNR,Croix de Neyrat,45.8146,3.10714,0,1970329131941918
3377704015497078,ARBRR|MNLP_**_D5ABR,Aristide Briand,45.7741,3.06378,0,1970329131942550
3377704015497079,CECHR|MNLP_**_21CER|MNLP_**_24CER,CEBAZAT CHU L.Michel,45.8397,3.092,0,1970329131941902
3377704015497087,HEBAA|MNLP_**_07HBA,Henri Barbusse,45.7839,3.08439,0,1970329131942151
3377704015497088,JUGUA|MNLP_**_10JGA,Jules Guesde,45.7777,3.06377,0,1970329131942538
3377704015497099,MNLP_**_21SGR|MNLP_**_A1SGA|STGMS,Stade G. Montpied,45.8129,3.12112,0,1970329131942531
3377704015497100,MNLP_**_03SGR|MNLP_**_21SMR|STGMT,Stade G. Montpied,45.813,3.12169,0,1970329131942531
3377704015497096,MNLP_**_20SAA|SARES,Sarre,45.8355,3.09608,0,1970462275928190
3377704015497089,JUGUR|MNLP_**_10JGR,Jules Guesde,45.7776,3.06441,0,1970329131942538
3377704015497090,LEBLB|MNLP_**_50LBA|MNLP_**_A1LBA,Léon Blum,45.7622,3.09713,0,1970329131941946
3377704015497097,MNLP_**_21SLA|SOLAA,Solayer,45.8103,3.11112,0,1970329131942551
3377704015497103,MNLP_**_20TFA|MNLP_**_31TFR|TRFER,Trois Fées,45.837,3.10495,0,1970329131942540
3377704015497104,MNLP_**_10VEA|MNLP_**_21VEA|MNLP_**_A1VER|VEGNB,Les Vergnes,45.8133,3.12909,0,1970329131941951
3377704015497098,MNLP_**_21SLR|SOLAR,Solayer,45.8104,3.11102,0,1970329131942551
3377704015497105,MNLP_**_10VER|MNLP_**_21VER|MNLP_**_A1VEA|VEGNS,Les Vergnes,45.8131,3.12918,0,1970329131941951
3377704015497108,MNLP_**_03VVA|VIVIA,Viviani,45.8072,3.11855,0,1970329131942539
3377704015497109,MNLP_**_20VVR|MNLP_**_21VVA|VIVIB,Viviani,45.8071,3.11913,0,1970329131942539
3377704015497110,MNLP_**_03VVR|VIVIR,Viviani,45.8071,3.11832,0,1970329131942539
3377704015497111,MNLP_**_20VVA|MNLP_**_21VVR|VIVIS,Viviani,45.807,3.11923,0,1970329131942539
3377704015497112,BIOPA|MNLP_**_33BIA,Biopole,45.8478,3.16686,0,1970329131942542
3377704015497127,MALIA|MNLP_**_25MAA|MNLP_**_33MAA,Malintrat,45.7953,3.12291,0,1970329131942547
3377704015497130,MNLP_**_33PIA|MNLP_**_33PIR|PISTC,Les Pistes,45.799,3.11288,0,1970329131942360
3377704015497131,MNLP_**_24PMA|PLMOA,Pl. du Montel,45.827,3.07415,0,1970329131941967
3377704015497113,BIOPR|MNLP_**_33BIR,Biopole,45.8478,3.16697,0,1970329131942542
3377704015497114,BLGRA|MNLP_**_24BLA,BLANZAT La Grotte,45.8268,3.06969,0,1970329131941899
3377704015497115,BLGRR|MNLP_**_24BLR,BLANZAT La Grotte,45.827,3.07003,0,1970329131941899
3377704015497116,CEBOA|MNLP_**_33CBA,Centre Bourg,45.8514,3.18025,0,1970329131942544
3377704015497117,CEBOR|MNLP_**_33CBR,Centre Bourg,45.8513,3.18012,0,1970329131942544
3377704015497118,CEREA|MNLP_**_24CYA,Ceyre,45.831,3.08558,0,1970329131941903
3377704015497119,CLEAA|MNLP_**_33CAA,Clement Ader,45.8158,3.15163,0,1970329131942543
3377704015497120,CLEAR|MNLP_**_33CAR,Clement Ader,45.8159,3.15209,0,1970329131942543
3377704015497121,COUMR|MNLP_**_24COR,Coumes,45.8315,3.0919,0,1970329131941915
3377704015497122,FONCA|MNLP_**_33FCA,Fontchenille,45.8208,3.15516,0,1970329131942545
3377704015497123,FONCR|MNLP_**_33FCR,Fontchenille,45.8209,3.15531,0,1970329131942545
3377704015497124,FRADA|MNLP_**_24FRA,Fradière,45.8286,3.07725,0,1970329131941930
3377704015497125,FRADR|MNLP_**_24FRR,Fradière,45.8293,3.07759,0,1970329131941930
3377704015497126,JARZA|MNLP_**_24JAA,Jarzy,45.83,3.08096,0,1970329131941936
3377704015497128,MALIR|MNLP_**_25MAR|MNLP_**_33MAR,Malintrat,45.7952,3.12326,0,1970329131942547
3377704015497129,MNLP_**_24MGR|MTGXR,Montgroux,45.8316,3.09636,0,1970329131941960
3377704015497132,MNLP_**_24PMR|PLMOR,Pl. du Montel,45.8271,3.07426,0,1970329131941967
3377704015497138,03VNR|MNLP_**_03VNR,Les Vignes,45.8028,3.10761,0,1970329131941952
3377704015497139,24CLA|MNLP_**_24CLA,Cladenas,45.8306,3.10539,0,1970329131941912
3377704015497133,MNLP_**_33LIA|STBLA,S.Beauzire Lilas,45.8489,3.17466,0,1970329131942546
3377704015497134,MNLP_**_33LIR|STBLR,S.Beauzire Lilas,45.8489,3.1745,0,1970329131942546
3377704015497135,MNLP_**_25GVA|MNLP_**_33SGA|STGRA,Stade des Gravanches,45.8019,3.13175,0,1970329131942548
3377704015497136,MNLP_**_25GVR|MNLP_**_33SGR|STGRR,Stade des Gravanches,45.802,3.13188,0,1970329131942548
3377704015497137,03APA|MNLP_**_03APA,AUBIÈRE Pl. des Ramacles,45.7497,3.1126,0,1970329131941892
3377704015497140,24CLR|MNLP_**_24CLR,Cladenas,45.8306,3.1054,0,1970329131941912
3377837159481345,MNLP_**_25QUA|QUBEA,Québec,45.8034,3.13314,0,1970462275928065
3377837159481346,MNLP_**_25QUR|QUBER,Québec,45.8032,3.1331,0,1970462275928065
3377837159481353,BOUSA|MNLP_**_20BSR|MNLP_**_31BOA,Boussadet,45.8326,3.10522,0,1970329131942541
3377837159481347,MNLP_**_25ZGA|ZOGRA,Zone des Gravanches,45.8057,3.13729,0,1970462275928066
3377837159481348,MNLP_**_25ZGR|ZOGRR,Zone des Gravanches,45.8057,3.13721,0,1970462275928066
3377837159481350,INCRA|MNLP_**_35ICA|MNLP_**_36ICA,INRAE Crouel,45.779,3.14292,0,1970329131942400
3377837159481351,MNLP_**_27TCR|TOCQS,Tocqueville,45.7328,3.09797,0,1970329131942237
3377837159481352,INCRR|MNLP_**_35ICR|MNLP_**_36ICR,INRAE Crouel,45.7788,3.14301,0,1970329131942400
3377837159481358,MNLP_**_31TFA|TRFEA,Trois Fées,45.837,3.10487,0,1970329131942540
3377837159481362,BIDER|MNLP_**_33BPR,Biopole 2,45.8502,3.1705,0,1970462275928067
3377837159481363,HACHT|MNLP_**_24HTR,Hauts de Chanturgue,45.8112,3.10621,0,1970329131941933
3377837159481361,BIDEA|MNLP_**_33BPA,Biopole 2,45.8501,3.17026,0,1970462275928067
3377837159481354,BOUSR|MNLP_**_31BOR,Boussadet,45.8326,3.10536,0,1970329131942541
3377837159481355,MNLP_**_03SGA|MNLP_**_21SGA|MNLP_**_A1SGR|STGMB,Stade G. Montpied,45.813,3.12126,0,1970329131942531
3377837159481356,FOVIA|MNLP_**_36FVA,Fourche Vieille,45.7922,3.26119,0,1970329131942549
3377837159481357,FOVIR|MNLP_**_36FVR,Fourche Vieille,45.7913,3.26231,0,1970329131942549
3377837159481433,GAMBR|MNLP_**_20GAR,Gambetta,45.8152,3.14384,0,1970462275928075
3377837159481434,JUFEA|MNLP_**_20JFA,J. Ferry,45.8205,3.14443,0,1970462275928076
3377837159481423,ALAUA|MNLP_**_34AAA,"Les Allées d'Aussandra",45.7139,3.19396,0,1970462275928080
3377837159481424,ALAUR|MNLP_**_34AAR,"Les Allées d'Aussandra",45.7137,3.19415,0,1970462275928080
3377837159481431,ENCLA|MNLP_**_34ENA,"L'enclos",45.7399,3.20226,0,1970462275928078
3377837159481432,GAMBA|MNLP_**_20GAA,Gambetta,45.8153,3.1439,0,1970462275928075
3377837159481468,BEHOA|MNLP_**_34BHA,Bel Horizon,45.7135,3.18799,0,1970329131942383
3377837159481470,03DDR|MNLP_**_03DDR,Diderot,45.8047,3.1092,0,1970329131941925
3377837159481438,MNLP_**_20RHA|RHONA,Rhonez,45.8141,3.14051,0,1970462275928074
3377837159481435,JUFER|MNLP_**_20JFR,J. Ferry,45.8205,3.1444,0,1970462275928076
3377837159481436,MNLP_**_34MOA|MTRIA,La Montorière,45.7119,3.19118,0,1970462275928079
3377837159481437,MNLP_**_34MOR|MTRIR,La Montorière,45.7119,3.19109,0,1970462275928079
3377837159481439,MNLP_**_20RHR|RHONR,Rhonez,45.8142,3.14051,0,1970462275928074
3377837159481440,MNLP_**_34RMA|RTMAA,LE CENDRE Rte des Martres,45.717,3.19096,0,1970462275928081
3377837159481441,MNLP_**_34RMR|RTMAR,LE CENDRE Rte des Martres,45.7169,3.19096,0,1970462275928081
3377837159481442,MNLP_**_03URA|MNLP_**_28URA|URBAA,Campus RDI,45.8441,3.12333,0,1970462275928077
3377837159481443,MNLP_**_03URR|MNLP_**_28URR|URBAR,Campus RDI,45.8441,3.12331,0,1970462275928077
3377837159481465,AVALA|MNLP_**_22AVA|MNLP_**_34AVA|MNLP_**_90AVA|MNLP_**_C_AVA,"Av. de l'Allier",45.7398,3.20919,0,1970462275928089
3377837159481471,MEUNB|MNLP_**_50MEA|MNLP_**_A1MEA,Meuniers,45.7652,3.10387,0,1970329131942252
3377837159481466,AVALR|MNLP_**_22AVR|MNLP_**_90AVR|MNLP_**_C_AVR,"Av. de l'Allier",45.7395,3.20956,0,1970462275928089
3377837159481490,COGHR|MNLP_**_23GHR,COURNON Grande Halle,45.7392,3.15959,0,1970462275928099
3377837159481480,BLPUR|MNLP_**_24BPR,"BLANZAT Puy de l'Orme",45.8272,3.06557,0,1970462275928095
3377837159481487,BOJOA|MNLP_**_23BJA,Bois Joli,45.7495,3.15079,0,1970462275928098
3377837159481488,BOJOR|MNLP_**_23BJR,Bois Joli,45.7494,3.15074,0,1970462275928098
3377837159481489,COGHA|MNLP_**_23GHA,COURNON Grande Halle,45.7393,3.15963,0,1970462275928099
3377837159481498,BATCR|MNLP_**_27QPR,Quartier Le Prat Bâtiment C,45.7447,3.11093,0,1970462275928104
3377837159481499,BATFA|MNLP_**_27BFA,Le Prat Bâtiment F,45.7457,3.11086,0,1970462275928102
3377837159481495,BATAA|MNLP_**_27BTA,Le Prat Bâtiment A,45.7461,3.11234,0,1970462275928103
3377837159481496,BATAR|MNLP_**_27BTR,Le Prat Bâtiment A,45.7461,3.11234,0,1970462275928103
3377837159481497,BATCA|MNLP_**_27QPA,Quartier Le Prat Bâtiment C,45.7447,3.11093,0,1970462275928104
3377837159481504,BLDXR|MNLP_**_03BXR|MNLP_**_28BXR,Les Balladoux,45.843,3.11959,0,1970462275928106
3377837159481505,BOUSQ|MNLP_**_10BSA,Docteur Bousquet,45.802,3.10798,0,1970329131942200
3377837159481500,BATFR|MNLP_**_27BFR,Le Prat Bâtiment F,45.7457,3.11086,0,1970462275928102
3377837159481503,BLDXA|MNLP_**_03BXA|MNLP_**_28BXA,Les Balladoux,45.8429,3.11882,0,1970462275928106
3377837159481508,CHAUB|MNLP_**_50LCA|MNLP_**_A1LCA,La Chaux,45.7611,3.10503,0,1970329131942440
3377837159481515,AMMER|MNLP_**_C_AMR,Anne-Marie Menut,45.7465,3.17347,0,1970462275928110
3377837159481516,BERTB|MNLP_**_05BTA,Berthelot,45.7808,3.06914,0,1970329131942051
3377837159481517,BERTS|MNLP_**_05BTR,Berthelot,45.7808,3.06928,0,1970329131942051
3377837159481518,CLAUA|MNLP_**_05CLA,Claussat,45.7788,3.06323,0,1970462275928108
3377837159481513,MNLP_**_50SDA|MNLP_**_A1SJA|SJDOS,Saint Jacques Dolet,45.7654,3.089,0,1970329131942443
3377837159481514,AMMEA|MNLP_**_C_AMA,Anne-Marie Menut,45.7466,3.17348,0,1970462275928110
3377837159481522,MNLP_**_03TOA|TONNA,Les Tonnelles,45.7287,3.10097,0,1970462275928111
3377837159481519,CLAUR|MNLP_**_05CLR,Claussat,45.7786,3.06314,0,1970462275928108
3377837159481520,MNLP_**_05RIA|RICHA,Richelieu,45.7792,3.06693,0,1970462275928109
3377837159481521,MNLP_**_05RIR|RICHR,Richelieu,45.7791,3.06677,0,1970462275928109
3377837159481531,JAAUR|MNLP_**_25JAR,Jacqueline Auriol,45.7979,3.14187,0,1970462275928114
3377837159481532,MNLP_**_50RPA|REPAA,Résidence Pasteur,45.7567,3.1097,0,1970462275928116
3377837159481527,CITEA|MNLP_**_50CIA,Cité 1,45.7621,3.11821,0,1970462275928117
3377837159481528,CRTOA|MNLP_**_25CRA,Chartoire,45.7972,3.13647,0,1970462275928113
3377837159481529,CRTOR|MNLP_**_25CRR,Chartoire,45.7972,3.13652,0,1970462275928113
3377837159481530,JAAUA|MNLP_**_25JAA,Jacqueline Auriol,45.7979,3.14187,0,1970462275928114
3377837159481536,FOEUA|MNLP_**_05FER|MNLP_**_13FEA,Fontmaure Europe,45.7751,3.06304,0,1970462275928118
3377837159481540,CXSGA|MNLP_**_37CGA,Croix St Guillaume,45.7497,3.24079,0,1970462275928119
3377837159481541,CXSGR|MNLP_**_37CGR,Croix St Guillaume,45.7497,3.24079,0,1970462275928119
3377837159481542,DASPA|MNLP_**_37DAA,MUR S/ ALLIER Salle Polyvalente,45.7711,3.24042,0,1970462275928120
3377837159481543,DASPR|MNLP_**_37DAR,MUR S/ ALLIER Salle Polyvalente,45.7711,3.24042,0,1970462275928120
3377837159481544,EDHEA|MNLP_**_37EHA,Edouard Herriot,45.7351,3.20659,0,1970462275928121
3377837159481547,JOGAU|MNLP_**_37JGA|MNLP_**_37JGR,COURNON J. Gardet,45.7397,3.1968,0,1970329131942105
3377837159481548,LAGOA|MNLP_**_37LGA,La Gobe,45.7668,3.23925,0,1970462275928123
3377837159481545,EDHER|MNLP_**_37EHR,Edouard Herriot,45.7351,3.20659,0,1970462275928121
3377837159481546,FOGRA|MNLP_**_37FGA|MNLP_**_37FGR,Font Grande,45.7556,3.24523,0,1970462275928122
3377837159481549,LAGOR|MNLP_**_37LGR,La Gobe,45.7668,3.23925,0,1970462275928123
3377837159481550,MNLP_**_37RPA|RPSBA,Rond-Point de St Bonnet,45.7282,3.23556,0,1970462275928124
3377837159481551,MNLP_**_37RPR|RPSBR,Rond-Point de St Bonnet,45.7282,3.23556,0,1970462275928124
3377837159481552,LEPUA|MNLP_**_37EPA,"L'Epouvantail",45.7293,3.23207,0,1970462275928125
3377837159481553,LEPUR|MNLP_**_37EPR,"L'Epouvantail",45.7293,3.23207,0,1970462275928125
3377837159481554,ARSEA|MNLP_**_25ARA,Arsenal,45.7983,3.13134,0,1970462275928126
3377837159481555,ARSER|MNLP_**_25ARR,Arsenal,45.7976,3.13035,0,1970462275928126
3377837159481564,LEMAA|MNLP_**_32ARA,ARGNAT Le Mas,45.8442,3.02573,0,1970329131942365
3377837159481565,FLEUS|MNLP_**_C_FLR,Fleury,45.7748,3.09597,0,1970329131942097
3377837159481566,MNLP_**_34CTA|MNLP_**_C_TOA|TOULA,COURNON Toulaits,45.7454,3.21029,0,1970329131942387
3377837159481580,CHLOA|MNLP_**_26CLA,Champlong,45.7588,3.05775,0,1970462275928134
3377837159481581,CHLOR|MNLP_**_26CLR,Champlong,45.7591,3.05692,0,1970462275928134
3377837159481582,MNLP_**_41MOA|MNLP_**_41MOR|PAMZA,Parc de Montjuzet,45.7903,3.07092,0,1970462275928135
3377837159481567,MNLP_**_09TCA|TRCHS,Trémonteix Charcot,45.793,3.07119,0,1970329131942042
3377837159481569,MNLP_**_09TER|TREYR,Trémonteix Eychart,45.7931,3.067,0,1970462275928130
3377837159481570,MNLP_**_34TOR|RELAR,René Laennec,45.7444,3.20583,0,1970462275928131
3377837159481575,MNLP_**_40RDA|RODOA,Rte des domes,45.7689,3.01303,0,1970462275928133
3377837159481571,34CTR|MNLP_**_34CTR,COURNON Toulaits,45.7454,3.21029,0,1970329131942387
3377837159481572,C_TOR|MNLP_**_C_TOR,COURNON Toulaits,45.7449,3.21035,0,1970329131942387
3377837159481576,MNLP_**_40RDR|RODOR,Rte des domes,45.7677,3.01393,0,1970462275928133
3377837159482340,CLETA|MNLP_**_28CLA,Clémentel,45.8115,3.10933,0,1970462275928136
3377837159482341,CLETR|MNLP_**_28CLR,Clémentel,45.8112,3.10948,0,1970462275928136
3377837159482346,GAMAA|MNLP_**_13GYA,Gamay,45.7493,3.13426,0,1970329131942267
3377837159482347,ARDEA|MNLP_**_36ARA,Les Ardeliers,45.7907,3.23507,0,1970462275928187
3377837159482348,ARDER|MNLP_**_36ARR,Les Ardeliers,45.7907,3.23509,0,1970462275928187
3377837159482349,BOULA|MNLP_**_36BOA,La Boule,45.8096,3.24193,0,1970462275928152
3377837159482350,BOULR|MNLP_**_36BOR,La Boule,45.8096,3.24196,0,1970462275928152
3377837159482351,CXBLS|MNLP_**_36CBR,Croix Blanche,45.7992,3.24468,0,1970329131942401
3377837159482352,DRROA|MNLP_**_36DRA,Docteur Royet,45.8035,3.24426,0,1970462275928189
3377837159482353,DRROR|MNLP_**_36DRR,Docteur Royet,45.8036,3.24431,0,1970462275928189
3377837159482354,LAMAA|MNLP_**_36LAA,Lamartine,45.8068,3.24381,0,1970329131942424
3377837159482356,LISAA|MNLP_**_36LIA,La Lissandre,45.7895,3.22534,0,1970329131942433
3377837159482357,LISAR|MNLP_**_36LIR,La Lissandre,45.7895,3.22528,0,1970329131942433
3377837159482355,LAMAR|MNLP_**_36LAR,Lamartine,45.8068,3.24383,0,1970329131942424
3377837159482358,MNLP_**_36NIA|NIGUA,Les Nigues,45.8062,3.23916,0,1970462275928160
3377837159482359,MNLP_**_36NIR|NIGUR,Les Nigues,45.8063,3.2392,0,1970462275928160
3377837159482360,MNLP_**_36PEA|PEYRA,Le Peyron,45.7895,3.23055,0,1970462275928161
3377837159482361,MNLP_**_36PER|PEYRR,Le Peyron,45.7896,3.23057,0,1970462275928161
3377837159482362,MNLP_**_36PLA|PLANA,Les Plantades,45.8046,3.23538,0,1970462275928162
3377837159482363,MNLP_**_36PLR|PLANR,Les Plantades,45.8046,3.23538,0,1970462275928162
3377837159482364,MNLP_**_36QUA|QUARA,Le Quarte,45.8003,3.24335,0,1970462275928164
3377837159482365,MNLP_**_36QUR|QUARR,Le Quarte,45.8003,3.24333,0,1970462275928164
3377837159482369,GRVOA|MNLP_**_41GRA|MNLP_**_41GRR,Gravouses,45.7847,3.07357,0,1970462275928191
3377837159482370,43BAA|MNLP_**_43BAA,Ballainvilliers,45.7758,3.08676,0,1970329131941894
3377837159482372,43EUA|MNLP_**_43EUA,Europe,45.7744,3.06302,0,1970329131942057
3377837159482373,43EUR|MNLP_**_43EUR,Europe,45.7744,3.06326,0,1970329131942057
3377837159482371,43BAR|MNLP_**_43BAR,Ballainvilliers,45.7757,3.0863,0,1970329131941894
3377837159482374,43FAA|MNLP_**_43FAA,"La Font de l'arbre",45.7686,3.00601,0,1970329131942553
3377837159482375,43FAR|MNLP_**_43FAR,"La Font de l'arbre",45.7687,3.00597,0,1970329131942553
3377837159482376,43GAA|MNLP_**_43GAA,Gare SNCF,45.7787,3.09939,0,1970329131941931
3377837159482377,43GAR|MNLP_**_43GAR,Gare SNCF,45.7788,3.09969,0,1970329131941931
3377837159482378,43GOA|MNLP_**_43GOA,Parking des Goules,45.8033,2.98765,0,1970462275928193
3377837159482383,43LBR|MNLP_**_43LBR,La Baraque,45.7815,3.02154,0,1970329131942555
3377837159482385,43OLR|MNLP_**_43OLR,Orcines Route de Limoges,45.7859,3.01492,0,1970329131942564
3377837159482386,43RAA|MNLP_**_43RAA,Royat Place Allard,45.7673,3.0565,0,1970329131942072
3377837159482387,43RAR|MNLP_**_43RAR,Royat Place Allard,45.7679,3.05623,0,1970329131942072
3377837159482384,43OLA|MNLP_**_43OLA,Orcines Route de Limoges,45.7858,3.01497,0,1970329131942564
3377837159482379,43GOR|MNLP_**_43GOR,Parking des Goules,45.8033,2.98765,0,1970462275928193
3377837159482380,43JAA|MNLP_**_43JAA,Jaude,45.777,3.08088,0,1970329131942106
3377837159482381,43JAR|MNLP_**_43JAR,Jaude,45.777,3.0813,0,1970329131942106
3377837159482382,43LBA|MNLP_**_43LBA,La Baraque,45.7815,3.02165,0,1970329131942555
3377837159482388,43RPA|MNLP_**_43RPA,Royat Pépinière,45.7656,3.04175,0,1970329131942071
3377837159482389,43RPR|MNLP_**_43RPR,Royat Pépinière,45.7657,3.04176,0,1970329131942071
3377837159482390,43VUA|MNLP_**_43VUA,Vulcania,45.8129,2.95103,0,1970462275928194
3377837159482391,43VUR|MNLP_**_43VUR,Vulcania,45.8129,2.95103,0,1970462275928194
3377837159482394,HERLA|MNLP_**_36HRA,"L'Herbelière",45.7927,3.23987,0,1970462275928204
3377837159482395,HERLR|MNLP_**_36HRR,"L'Herbelière",45.793,3.24,0,1970462275928204
3377837159482417,CHCHA|MNLP_**_37CCA,Chemin du Cheix,45.7586,3.23803,0,1970462275928195
3377837159482418,CHCHR|MNLP_**_37CCR,Chemin du Cheix,45.7586,3.23803,0,1970462275928195
3377837159482419,JEFOA|MNLP_**_37JFA|MNLP_**_69JFA,Jean Fourcade,45.7529,3.24172,0,1970462275928196
3377837159482420,JEFOR|MNLP_**_37JFR|MNLP_**_69JFR,Jean Fourcade,45.7529,3.24172,0,1970462275928196
3377837159482430,MNLP_**_21MUA|MNLP_**_22MUR|MNLP_**_31MUA|MNLP_**_33MUR|MNLP_**_A1MUA|MNLP_**_MUSER|MURQB,"Musée d'Art Roger Quilliot",45.7934,3.11747,0,1970462275928199
3377837159482429,MNLP_**_A_MUA|MURQA,"Musée d'Art Roger Quilliot",45.7938,3.11734,0,1970462275928199
3377837159482432,MNLP_**_A_MUR|MURQR,"Musée d'Art Roger Quilliot",45.7938,3.11737,0,1970462275928199
3377837159482433,MNLP_**_20MUR|MNLP_**_21MUR|MNLP_**_22MUA|MNLP_**_31MUR|MNLP_**_33MUA|MNLP_**_A1MTR|MNLP_**_A1MUR|MNLP_**_MUSEA|MURQS,"Musée d'Art Roger Quilliot",45.7943,3.11701,0,1970462275928199
3377837159482441,MNLP_**_08FLR|MNLP_**_13FLR|PAULR,Paulines,45.7752,3.09556,0,1970462275928205
3377850044383269,LABEA|MNLP_**_26BEA,La Beaumière,45.745,3.07001,0,1970475160829967
3377850044383253,CEYRS|MNLP_**_26CMR,CEYRAT Mairie,45.7342,3.06405,0,1970329131941996
3377850044383270,LABER|MNLP_**_26BER,La Beaumière,45.745,3.06982,0,1970475160829967
3377850044383271,MNLP_**_26CAA|PLARA,Plaine des Sports Arténium,45.7364,3.06576,0,1970475160829968
3377850044383272,MNLP_**_26CAR|PLARR,Plaine des Sports Arténium,45.7362,3.06533,0,1970475160829968
3377850044383273,MNLP_**_41PRA|PLRYA,Place Royale,45.7775,3.08538,0,1970475160829969
3377850044383274,MNLP_**_41PRR|PLRYR,Place Royale,45.7775,3.08538,0,1970475160829969
3377850044383275,MNLP_**_22ZIR|ZIESR,Z.I. Est,45.7333,3.17822,0,1970475160829966
3377850044383285,AVREA|MNLP_**_13ARA,Av. de la République,45.7345,3.14206,0,1970475160829971
3377850044383286,AVRER|MNLP_**_13ARR,Av. de la République,45.7344,3.14195,0,1970475160829971
3377850044383287,MNLP_**_13RCA|PERTA,PERIGNAT Rte de COURNON,45.7338,3.14436,0,1970475160829972
3377850044383288,MNLP_**_13RCR|PERTR,PERIGNAT Rte de COURNON,45.7338,3.14436,0,1970475160829972
3377704015495793,LETRR|MNLP_**_32LER,Letrade,45.8253,3.05034,0,1970329131942371
3377850044383294,20TFR|MNLP_**_20TFR,Trois Fées,45.8371,3.10495,0,1970329131942540
3377837159481568,MNLP_**_09TEA|TREYA,Trémonteix Eychart,45.7931,3.06584,0,1970462275928130
3377850044383291,20CDR|MNLP_**_20CDR,Cladenas,45.8306,3.10539,0,1970329131941912
3377850044383292,20MCR|MNLP_**_20MCR,Marie Curie,45.8359,3.10195,0,1970329131942287
3377850044383293,20SAR|MNLP_**_20SAR,Sarre,45.8355,3.09617,0,1970462275928190
1970329131942072,,ROYAT Pl. Allard,45.7678,3.05636,1,
1970329131942404,,Le Cèdre,45.7997,3.25285,1,
1970329131942269,,Aéroport,45.7918,3.1614,1,
1970329131942325,,Acilloux,45.7296,3.18219,1,
1970329131942390,,Charles de Gaulle,45.7694,3.19823,1,
1970329131942433,,La Lissandre,45.7898,3.22521,1,
1970329131942424,,Lamartine,45.8071,3.24363,1,
1970329131942138,,Abbé Prévost,45.793,3.08432,1,
1970329131942044,,Alexandre Varenne,45.7767,3.07767,1,
1970329131942171,,Agriculture,45.7797,3.1287,1,
1970329131942078,,Alouettes,45.7355,3.1919,1,
1970329131942222,,Anatole France,45.7789,3.11274,1,
1970329131941889,,Arbos,45.8118,3.10328,1,
1970329131942172,,Arago,45.7748,3.10376,1,
1970329131942173,,Aubrac,45.781,3.11764,1,
1970329131942318,,"L'Arche",45.742,3.15833,1,
1970329131942193,,Aubigné,45.7793,3.10843,1,
1970329131941890,,Artière,45.7536,3.11695,1,
1970329131942195,,Aviation,45.7935,3.15624,1,
1970329131941891,,Aubiat,45.8319,3.09665,1,
1970329131941893,,Audollent,45.7787,3.09349,1,
1970329131941892,,AUBIÈRE Pl. des Ramacles,45.7498,3.11247,1,
1970329131942194,,AULNAT St Exupéry,45.7955,3.17224,1,
1970329131942308,,Auzon,45.7253,3.19712,1,
1970329131942082,,Av. du Pont,45.7354,3.2073,1,
1970329131941896,,Bellevue,45.7339,3.10678,1,
1970329131941991,,Bas Champflour,45.787,3.09225,1,
1970329131942045,,Av. Thermale,45.7715,3.05942,1,
1970329131941895,,"Barrière d'Issoire",45.7732,3.09204,1,
1970329131941894,,Ballainvilliers,45.7756,3.0866,1,
1970329131941990,,Barante,45.786,3.06953,1,
1970329131942196,,Banville,45.7784,3.10441,1,
1970329131942047,,Bargoin,45.7636,3.06035,1,
1970329131942049,,Barrieu,45.7646,3.05445,1,
1970329131942048,,Barreiras,45.7632,3.04925,1,
1970329131942270,,Batignolles,45.8374,3.14754,1,
1970329131942376,,Beauséjour,45.7241,3.19193,1,
1970329131941993,,Beaupeyras,45.7947,3.08258,1,
1970329131942240,,Beausite,45.7681,3.06197,1,
1970329131942383,,Bel Horizon,45.7134,3.18802,1,
1970329131941897,,Bellime,45.8358,3.09508,1,
1970329131942266,,Berlioz,45.7694,3.0764,1,
1970329131942153,,"BEAUMONT Pl. d'Armes",45.7514,3.08838,1,
1970329131942159,,MATUSSAT Châtaigneraie,45.7489,3.06928,1,
1970329131942050,,Berceaux,45.7645,3.05322,1,
1970329131941992,,BEAUMONT Pont de Boisséjour,45.7474,3.07216,1,
1970329131942309,,Beau Rivage,45.7337,3.21143,1,
1970329131941997,,Boisséjour Monument,45.744,3.05853,1,
1970329131942051,,Berthelot,45.7807,3.07016,1,
1970329131942227,,Bezance,45.7315,3.09975,1,
1970329131941938,,La Bezou,45.7438,3.10768,1,
1970329131941898,,Bien Assis,45.7887,3.09526,1,
1970329131941899,,BLANZAT La Grotte,45.8269,3.06985,1,
1970329131942351,,BLANZAT Les Mauvaises,45.8398,3.0745,1,
1970329131942083,,Beaumes,45.7814,3.06315,1,
1970329131942271,,Bourly,45.8288,3.14609,1,
1970329131941994,,Boisséjour Place,45.7452,3.06229,1,
1970329131941995,,Bouys,45.7941,3.06219,1,
1970329131942085,,Carnot,45.7762,3.09464,1,
1970329131942174,,Brézet,45.7799,3.133,1,
1970329131942272,,Brugeron,45.8086,3.1293,1,
1970329131942065,,La Brune,45.7509,3.06207,1,
1970329131942326,,Brunmurol,45.7329,3.06436,1,
1970329131942175,,Bughes,45.7879,3.08396,1,
1970329131942274,,Collège Anatole France,45.8282,3.15428,1,
1970329131942435,,Campus,45.7589,3.11381,1,
1970329131942336,,Les Carmes,45.7829,3.09575,1,
1970329131941947,,Les Caves,45.7327,3.10528,1,
1970329131942134,,Cartoucherie,45.7761,3.09875,1,
1970329131941901,,Cataroux,45.7891,3.09874,1,
1970329131941900,,Casati,45.7524,3.1077,1,
1970329131941903,,Ceyre,45.831,3.08536,1,
1970329131941998,,CEYRAT Pradeaux,45.7207,3.06815,1,
1970329131941918,,Croix de Neyrat,45.8142,3.10701,1,
1970329131941902,,CEBAZAT CHU L.Michel,45.8397,3.09198,1,
1970329131942327,,CEYRAT Fontimbert,45.734,3.07566,1,
1970329131942436,,Cézeaux Pellez,45.7613,3.10887,1,
1970329131942086,,Cévennes,45.7273,3.18953,1,
1970329131941999,,CEYRAT Robinson,45.7258,3.06353,1,
1970329131941996,,CEYRAT Mairie,45.7338,3.06399,1,
1970329131942273,,Chabesses,45.8178,3.14309,1,
1970329131942000,,Clos des Vignes,45.7918,3.0914,1,
1970329131942003,,"Chapelle de l'Agneau",45.75,3.07927,1,
1970329131942177,,Chanelles,45.7895,3.08031,1,
1970329131941906,,Champratel,45.8155,3.1129,1,
1970329131942213,,Les Chapelles,45.7991,3.16798,1,
1970329131942088,,Chazots,45.7534,3.1367,1,
1970329131942154,,Châtaigneraie,45.7501,3.07195,1,
1970329131942282,,La Charme,45.7981,3.11965,1,
1970329131942440,,La Chaux,45.7609,3.10463,1,
1970329131942352,,"Champ de l'Allée",45.8512,3.08275,1,
1970329131942354,,Chavaroche,45.8473,3.08673,1,
1970329131942012,,Les Chabades,45.7528,3.08365,1,
1970329131942359,,Les Chambérys,45.848,3.09106,1,
1970329131942087,,Chaux Blanche,45.7392,3.17174,1,
1970329131942054,,Chambre de Commerce,45.7822,3.07275,1,
1970329131941904,,Champcros,45.8213,3.10702,1,
1970329131942366,,Champcourt,45.8158,3.05728,1,
1970329131942369,,La Cheyre,45.8038,3.05603,1,
1970329131942445,,CHU Estaing,45.7848,3.10855,1,
1970329131941905,,Champfleuri,45.7932,3.09933,1,
1970329131941911,,CHU G. Montpied,45.7612,3.08981,1,
1970329131942052,,Chamalières Lycée,45.7767,3.05113,1,
1970329131942298,,Chappe,45.7864,3.11964,1,
1970329131942353,,CHÂTEAUGAY Le Châlard,45.854,3.08907,1,
1970329131942053,,Chamalières Mairie,45.7757,3.06796,1,
1970329131942331,,Chomontel,45.7309,3.09667,1,
1970329131941909,,Chaptal,45.7588,3.10157,1,
1970329131942001,,Champradet,45.7876,3.05969,1,
1970329131942178,,Chateaubriand,45.7865,3.08086,1,
1970329131942004,,Charcot Fontaine du Large,45.7939,3.09114,1,
1970329131941907,,Champvoisin,45.7523,3.11019,1,
1970329131942242,,Cité Centre Enfance,45.7687,3.07259,1,
1970329131942155,,Chaussades,45.7509,3.07661,1,
1970329131941908,,Chanteranne,45.7917,3.09623,1,
1970329131942002,,Chantemerle,45.7372,3.06123,1,
1970329131941913,,Clos Four,45.7872,3.09813,1,
1970329131941912,,Cladenas,45.8304,3.10484,1,
1970329131942156,,Collège Baudelaire,45.759,3.09508,1,
1970329131942139,,Clovis Hugues,45.7727,3.11056,1,
1970329131942332,,Clémensat,45.7223,3.08009,1,
1970329131942437,,Collège A. Camus,45.8076,3.10743,1,
1970329131942314,,COURNON Hortensias,45.727,3.18953,1,
1970329131942243,,Collège J. Curie,45.752,3.1194,1,
1970329131942005,,Côtes Fleuries,45.7945,3.08448,1,
1970329131941914,,Côte Blatin,45.7709,3.09451,1,
1970329131942198,,Collège G. Philippe,45.7963,3.1157,1,
1970329131942244,,Colombier,45.7805,3.04812,1,
1970329131942090,,Lycée Descartes,45.7435,3.21043,1,
1970329131942313,,Cornonet,45.7388,3.19926,1,
1970329131942245,,Combes,45.7666,3.06695,1,
1970329131942357,,La Commandante,45.8483,3.08822,1,
1970329131942089,,Condorcet,45.7398,3.1918,1,
1970329131942157,,Collège Molière,45.751,3.09645,1,
1970329131942179,,Condamine,45.7771,3.11294,1,
1970329131942135,,COURNON Pasteur,45.7263,3.20062,1,
1970329131942312,,Collège de La Ribeyre,45.7283,3.20366,1,
1970329131941916,,Couthon,45.7359,3.10201,1,
1970329131942142,,Les Côtes,45.7997,3.0845,1,
1970329131941915,,Coumes,45.8315,3.09177,1,
1970329131942391,,Croix Basse,45.7748,3.1935,1,
1970329131942055,,Croix de Frun,45.7585,3.06326,1,
1970329131942401,,Croix Blanche,45.7992,3.24454,1,
1970329131942176,,Centre Routier,45.7827,3.11897,1,
1970329131942228,,Croix Neuve,45.7544,3.08769,1,
1970329131942140,,Croix Léonardoux,45.7735,3.12302,1,
1970329131942358,,Le Maillot,45.8493,3.10218,1,
1970329131942091,,Croix des Vignes,45.742,3.18171,1,
1970329131942448,,Crouël,45.7707,3.12882,1,
1970329131941917,,Coutils,45.8249,3.1052,1,
1970329131942199,,Cugnot,45.7813,3.12314,1,
1970329131941919,,Daguerre,45.7595,3.09606,1,
1970329131941921,,Debussy,45.8177,3.10711,1,
1970329131941920,,Daudet,45.8145,3.10294,1,
1970329131942136,,Delille Montlosier,45.7808,3.09116,1,
1970329131941923,,Deux Patriotes,45.781,3.10369,1,
1970329131941922,,Delille Salford,45.7798,3.09188,1,
1970329131941925,,Diderot,45.805,3.10931,1,
1970329131942180,,Diomède,45.7841,3.07713,1,
1970329131942229,,Dolet,45.7648,3.08661,1,
1970329131942092,,Dômes,45.7315,3.19223,1,
1970329131942169,,Drelon,45.7702,3.08009,1,
1970329131942367,,Docteur Jay,45.8275,3.05105,1,
1970329131942200,,Docteur Bousquet,45.8022,3.1062,1,
1970329131942299,,Edgar Quinet,45.8051,3.11876,1,
1970329131942319,,Les Ducs,45.7384,3.20525,1,
1970329131942006,,Docteur Hospital,45.7942,3.08793,1,
1970329131942276,,Docteur Mally,45.7885,3.12534,1,
1970329131942446,,Duclaux,45.7762,3.07185,1,
1970329131941926,,Les Tonnelles,45.7292,3.10237,1,
1970329131942007,,DURTOL,45.7974,3.05246,1,
1970329131942203,,Élisée Reclus,45.7905,3.13541,1,
1970329131942368,,"Église d'Argnat",45.8449,3.03092,1,
1970329131942202,,Edmond Rostand,45.7988,3.17114,1,
1970329131942056,,Égalité,45.7463,3.06036,1,
1970329131942246,,Eglise de Pérignat,45.7366,3.14113,1,
1970329131942315,,Émile Roux,45.7368,3.21448,1,
1970329131942096,,Flaubert,45.7572,3.1272,1,
1970329131942093,,Ernest Cristal,45.759,3.14434,1,
1970329131941927,,Esplanade,45.7776,3.09534,1,
1970329131942378,,Espace des Marronniers,45.7219,3.18626,1,
1970329131942094,,Faculté,45.7763,3.09101,1,
1970329131942057,,Europe,45.7744,3.06352,1,
1970329131942097,,Fleury,45.7753,3.09584,1,
1970329131942098,,Foirail,45.7318,3.20358,1,
1970329131942100,,Fontaine du Bac,45.7627,3.12269,1,
1970329131942380,,Gare Le Cendre/Orcet,45.7233,3.18896,1,
1970329131942099,,Foisses,45.7608,3.12267,1,
1970329131941928,,Fontcimagne,45.7978,3.10452,1,
1970329131942379,,Forum,45.7193,3.18358,1,
1970329131942230,,Forest,45.7432,3.09536,1,
1970329131942008,,Fournières,45.789,3.06372,1,
1970329131941930,,Fradière,45.8289,3.07721,1,
1970329131942205,,Frères Lumière,45.7893,3.13515,1,
1970329131942058,,F. Roosevelt,45.7774,3.07281,1,
1970329131942206,,Gagarine,45.7926,3.14451,1,
1970329131942060,,Gaillard,45.78,3.08211,1,
1970329131942247,,Galoubies,45.7675,3.06924,1,
1970329131942267,,Gamay,45.749,3.13438,1,
1970329131942278,,Gay Lussac,45.79,3.13026,1,
1970329131942392,,Gandaillat,45.7787,3.15735,1,
1970329131942101,,Gardes,45.7407,3.18883,1,
1970329131942059,,G. Péri,45.7809,3.07627,1,
1970329131942316,,Garennes,45.7313,3.20752,1,
1970329131942393,,Gargailles,45.7704,3.18922,1,
1970329131942061,,Garnaudes,45.7729,3.06055,1,
1970329131941931,,Gare SNCF,45.7786,3.09938,1,
1970329131942197,,GERZAT Champfleuri,45.8353,3.14766,1,
1970329131941976,,ROMAGNAT La Gazelle,45.738,3.10486,1,
1970329131942181,,Georges Besse,45.7842,3.13898,1,
1970329131942279,,GERZAT Rochefort,45.8309,3.15127,1,
1970329131941932,,Gomel,45.8125,3.09963,1,
1970329131942182,,Glacière,45.7922,3.07928,1,
1970329131942207,,Goncourt,45.784,3.06875,1,
1970329131942356,,Graviers,45.8458,3.10949,1,
1970329131942103,,Gourgat,45.7539,3.13923,1,
1970329131942403,,Grangevieille,45.7758,3.19154,1,
1970329131942394,,Grassette,45.7736,3.18149,1,
1970329131942280,,Gravanches,45.7892,3.11801,1,
1970329131942102,,Gergovie,45.733,3.18791,1,
1970329131942300,,Grenier,45.7691,3.12383,1,
1970329131942381,,Graveyroux Commerces,45.7285,3.18621,1,
1970329131942062,,Gravenoire,45.7532,3.06242,1,
1970329131942438,,Gravière,45.7897,3.11027,1,
1970329131942248,,Hauts de CHAMALIÈRES,45.7822,3.05318,1,
1970329131942208,,Gutenberg,45.7838,3.13089,1,
1970329131941933,,Hauts de Chanturgue,45.811,3.10676,1,
1970329131942151,,Henri Barbusse,45.7836,3.08435,1,
1970329131942395,,Hallstadt,45.7717,3.18595,1,
1970329131942306,,"L'Hermitage",45.7653,3.1256,1,
1970329131942209,,Herbet,45.7798,3.1148,1,
1970329131942152,,08-mai,45.7713,3.0784,1,
1970329131942439,,Hôtel de Ville,45.7807,3.0853,1,
1970329131942106,,Jaude,45.7769,3.08127,1,
1970329131941934,,Iliane,45.8078,3.12622,1,
1970329131942400,,INRAE Crouel,45.7789,3.14296,1,
1970329131942104,,Industrie,45.7501,3.15956,1,
1970329131941935,,Institut des Métiers,45.8104,3.12907,1,
1970329131942281,,Jaloustre,45.8225,3.14538,1,
1970329131942328,,Janolle,45.7314,3.072,1,
1970329131942301,,Jardiniers,45.8029,3.11959,1,
1970329131941936,,Jarzy,45.83,3.08087,1,
1970329131942009,,Jean Jaurès,45.7677,3.08243,1,
1970329131942210,,Jean Mermoz,45.7916,3.13974,1,
1970329131942183,,Jean Moulin,45.7769,3.11726,1,
1970329131941937,,Joliot Curie,45.7517,3.11713,1,
1970329131942105,,COURNON J. Gardet,45.7394,3.19639,1,
1970329131942211,,Jules Verne,45.7863,3.13676,1,
1970329131942184,,Kepler,45.7792,3.1209,1,
1970329131942064,,Kennedy,45.8002,3.1212,1,
1970329131942110,,Lac,45.7314,3.1963,1,
1970329131942335,,Lacheix,45.7236,3.08337,1,
1970329131941941,,CEBAZAT Ladoux Ouest,45.841,3.12095,1,
1970329131942441,,Lagarlaye,45.7733,3.08264,1,
1970329131942389,,AIA,45.7778,3.1674,1,
1970329131942111,,Le Château,45.7701,3.10732,1,
1970329131942249,,Landais,45.7638,3.11637,1,
1970329131942011,,Layat,45.7913,3.05355,1,
1970329131941942,,CEBAZAT Porte de Troyes,45.8413,3.12918,1,
1970329131941944,,Leclanché,45.8065,3.11088,1,
1970329131941946,,Léon Blum,45.7626,3.09776,1,
1970329131942066,,Landouzy,45.7672,3.05861,1,
1970329131941945,,Lecoq,45.7716,3.08684,1,
1970329131942365,,ARGNAT Le Mas,45.8441,3.02541,1,
1970329131942257,,PERIGNAT Les Horts,45.725,3.14709,1,
1970329131942384,,Lhomet,45.743,3.20101,1,
1970329131942396,,LEMPDES Le Pontel,45.7758,3.19626,1,
1970329131942405,,Le Ruchon,45.7977,3.23855,1,
1970329131942371,,Letrade,45.8254,3.05034,1,
1970462275928129,,La Grave,45.7967,3.06,1,
1970329131942506,,La Grave,45.7967,3.05993,1,
1970329131942013,,Les Lierres,45.7952,3.07595,1,
1970329131942284,,Limagne,45.8313,3.1454,1,
1970329131942113,,Limousin,45.7878,3.06479,1,
1970329131942231,,Liondards,45.759,3.08663,1,
1970329131942370,,Les Littes,45.8218,3.05283,1,
1970329131942170,,Littré,45.7685,3.07959,1,
1970329131942114,,Livradois,45.7313,3.19938,1,
1970329131941943,,Le Mas,45.7554,3.1041,1,
1970329131942214,,Lycée A. Brugière,45.8019,3.11061,1,
1970329131942386,,Maryse Bastié,45.7266,3.18693,1,
1970329131941953,,Lycée Lafayette,45.7634,3.12874,1,
1970329131942143,,Lycée Sidoine Apollinaire,45.7818,3.08672,1,
1970329131941955,,Maison de la Culture,45.7707,3.08496,1,
1970329131942361,,Mairie de Châteaugay,45.8499,3.08416,1,
1970329131942015,,Mairie de Beaumont,45.7539,3.08605,1,
1970329131942385,,Mairie de Cournon,45.7415,3.19962,1,
1970329131942286,,Marcel Paul,45.8269,3.12438,1,
1970329131942397,,Mairie de Lempdes,45.7684,3.19733,1,
1970329131942362,,Malalittes,45.8544,3.08578,1,
1970329131942016,,Malville,45.7841,3.07182,1,
1970329131941956,,Marcel Michelin,45.7537,3.11332,1,
1970329131942116,,Manzats,45.7439,3.16665,1,
1970329131942215,,Maniez,45.7967,3.16469,1,
1970329131942287,,Marie Curie,45.8359,3.10193,1,
1970329131942145,,Maurice Pourchon,45.7895,3.08427,1,
1970329131942250,,Margeride,45.761,3.12021,1,
1970329131942398,,Marmilhat,45.7771,3.17569,1,
1970329131942144,,Maison des Sports,45.7866,3.08455,1,
1970329131942295,,Martyrs,45.8231,3.14615,1,
1970329131941954,,Mairie de Romagnat,45.7305,3.10321,1,
1970329131942407,,Montboissier,45.7984,3.25826,1,
1970329131942251,,Massenet,45.7703,3.06411,1,
1970329131942017,,Matharet,45.7479,3.06904,1,
1970329131942018,,Mazeyrat,45.742,3.05898,1,
1970329131942117,,Médicis,45.7698,3.11084,1,
1970329131942304,,Mercoeur,45.8096,3.11974,1,
1970329131942252,,Meuniers,45.7656,3.10448,1,
1970329131941957,,"Michel de l'Hospital",45.7778,3.09021,1,
1970329131942406,,Milan,45.7809,3.20642,1,
1970329131942120,,Mozart,45.733,3.2063,1,
1970329131942119,,Monteix,45.744,3.17773,1,
1970329131941960,,Montgroux,45.8315,3.09651,1,
1970329131942115,,Maison Rouge,45.7682,3.11811,1,
1970329131942020,,Montcharvais,45.7888,3.05625,1,
1970329131942339,,Montant,45.7291,3.09453,1,
1970329131942067,,Montagnards,45.7603,3.0622,1,
1970329131942442,,Montferrand La Fontaine,45.7915,3.11495,1,
1970329131941959,,Montalembert,45.7564,3.09573,1,
1970329131942447,,Montjoly,45.7735,3.06602,1,
1970329131941961,,Neuf Soleils,45.7669,3.09587,1,
1970329131942021,,Montpoly,45.7518,3.08091,1,
1970329131942330,,Montrognon,45.7321,3.06648,1,
1970329131942363,,Montquerier,45.8508,3.10692,1,
1970329131942217,,Narvik,45.8149,3.10589,1,
1970329131942307,,11-nov,45.7336,3.19209,1,
1970329131942022,,Naudin,45.785,3.06861,1,
1970329131941962,,Neyrat,45.8148,3.10757,1,
1970329131942373,,Pl. de la Farge,45.8089,3.05618,1,
1970329131942345,,ROMAGNAT Opme,45.7109,3.09002,1,
1970329131942399,,Nymphea,45.7725,3.19613,1,
1970329131942253,,Observatoire,45.7641,3.11266,1,
1970329131942329,,"L'Oclède",45.7589,3.05525,1,
1970329131942023,,Oradou Gantière,45.7648,3.12411,1,
1970329131942532,,Paul Bert,45.7718,3.06553,1,
1970329131942256,,Paul Cézanne,45.7805,3.05092,1,
1970329131942225,,Pasteur Curie,45.7944,3.1651,1,
1970329131942186,,La Pardieu Gare,45.7666,3.13431,1,
1970329131942107,,La Pardieu,45.7612,3.13221,1,
1970329131942340,,Paillards,45.7261,3.09086,1,
1970329131942232,,Pâles,45.741,3.09696,1,
1970329131942219,,Palissy,45.7884,3.13766,1,
1970329131942254,,Parc Montjoly,45.7736,3.06723,1,
1970329131942158,,Le Parc,45.7546,3.09733,1,
1970329131942024,,Pablo Neruda,45.7661,3.12133,1,
1970329131942185,,P. Boulanger,45.7808,3.13621,1,
1970329131941963,,Parc SNCF,45.7771,3.10169,1,
1970329131942146,,Parlette,45.7764,3.11816,1,
1970329131942288,,Pascal,45.8287,3.1486,1,
1970329131942289,,Patural,45.8278,3.15094,1,
1970329131942068,,Pasteur,45.7643,3.04465,1,
1970329131942283,,Les Pègues,45.8242,3.14962,1,
1970329131942241,,Bonneval,45.7302,3.14408,1,
1970329131942408,,Petit Champ,45.7962,3.23355,1,
1970329131941948,,Les Perches,45.8303,3.09937,1,
1970329131941964,,Pérouses,45.7353,3.10479,1,
1970329131941965,,Peuplier,45.7485,3.11056,1,
1970329131942122,,Pervenches,45.739,3.18733,1,
1970329131942372,,Pierre Combe,45.8346,3.04768,1,
1970329131942123,,Pionniers,45.7466,3.16335,1,
1970329131942360,,Les Pistes,45.7991,3.11321,1,
1970329131941939,,La Plaine,45.8117,3.11449,1,
1970329131941949,,Les Plats,45.7648,3.09293,1,
1970329131942108,,La Poélade,45.7384,3.18015,1,
1970329131942297,,Pl. de la commune,45.8297,3.09842,1,
1970329131942321,,Plaine de Jeux,45.7393,3.21388,1,
1970329131941967,,Pl. du Montel,45.827,3.07421,1,
1970329131942364,,Pl. F. Rougeyron,45.8494,3.08598,1,
1970329131942322,,Plaine de Sarliève,45.7447,3.15428,1,
1970329131942025,,Pl. de Verdun,45.7653,3.08247,1,
1970329131942124,,Pointe de Cournon,45.754,3.15676,1,
1970329131942125,,Pont de Sarliève,45.7565,3.14919,1,
1970329131942259,,Port Royal,45.7703,3.10156,1,
1970329131942258,,Pommeraie,45.7271,3.14591,1,
1970329131941988,,Pont de Naud,45.7731,3.09483,1,
1970329131942027,,Pont Neuf,45.7912,3.05942,1,
1970329131942303,,Le Pont,45.7735,3.12038,1,
1970329131942291,,Portefort,45.7989,3.11771,1,
1970329131942290,,Pont St Jean,45.787,3.11919,1,
1970329131942069,,Poste,45.7659,3.05648,1,
1970329131942234,,Pourliat,45.7462,3.0941,1,
1970329131941971,,Prat,45.7459,3.10911,1,
1970329131942026,,Pont de Vallières,45.7585,3.08118,1,
1970329131942233,,Percières,45.757,3.0869,1,
1970329131942221,,Pré Moreau,45.7821,3.12705,1,
1970329131942126,,Pradelle,45.7733,3.09836,1,
1970329131942028,,Préguille,45.7393,3.05993,1,
1970329131942029,,Prévert,45.7318,3.06374,1,
1970329131941989,,1er Mai,45.7852,3.10142,1,
1970329131942260,,Raye Dieu,45.7687,3.10439,1,
1970329131941972,,Pruniers,45.7951,3.10185,1,
1970329131942409,,"Pont d'Allier",45.7948,3.25835,1,
1970329131941973,,Puget,45.7611,3.1004,1,
1970329131942030,,Puyou,45.7951,3.07913,1,
1970329131941974,,Quartier Chambon,45.7525,3.13015,1,
1970329131942031,,Quatre Routes,45.7855,3.06462,1,
1970329131942268,,Régensburg,45.7706,3.07756,1,
1970329131942235,,Rabanesse,45.7678,3.08686,1,
1970329131942238,,Raynaud,45.7701,3.0872,1,
1970329131942261,,Rochefeuille,45.7658,3.10842,1,
1970329131942410,,PONT DU CHÂTEAU Rte de Lyon,45.7888,3.26594,1,
1970329131942239,,René Brut,45.7528,3.08812,1,
1970329131942411,,René Cassin,45.7999,3.24933,1,
1970329131942226,,République,45.7942,3.16231,1,
1970329131942032,,Redon,45.723,3.06732,1,
1970329131942070,,Renoux,45.7645,3.05593,1,
1970329131942192,,Rodolphe Diesel,45.7797,3.1369,1,
1970329131942160,,Résistance,45.7504,3.09077,1,
1970329131942161,,Rivière,45.7685,3.07784,1,
1970329131942033,,Roches Brunes,45.756,3.08466,1,
1970329131942035,,Route de Berzet,45.7283,3.06408,1,
1970329131942014,,Les Roches,45.7482,3.07679,1,
1970329131942374,,Roche Demie,45.8281,3.05441,1,
1970329131942188,,Ronzières,45.7791,3.12575,1,
1970329131941975,,ROMAGNAT Gergovia,45.7264,3.10125,1,
1970329131942071,,Royat Pépinière,45.7658,3.04198,1,
1970329131942236,,Roseraie,45.7364,3.09903,1,
1970329131941987,,Pl. F. Mitterrand,45.7297,3.1003,1,
1970329131942034,,Rossignol,45.7851,3.07076,1,
1970329131941977,,Rouvier,45.8064,3.11456,1,
1970329131942127,,Roussillon,45.7528,3.13198,1,
1970329131942147,,Salvador Allende,45.773,3.11707,1,
1970329131942129,,St André,45.7774,3.06867,1,
1970329131942375,,"SAYAT Bel'Air",45.8315,3.05458,1,
1970329131942262,,"Sable d'Étampes",45.7677,3.06453,1,
1970329131942348,,Saulzet Le Chaud,45.7137,3.07095,1,
1970329131942037,,Square Sabourin,45.7946,3.05275,1,
1970329131942263,,Sacré Coeur,45.7719,3.09891,1,
1970329131942036,,Salins Coubertin,45.7697,3.08307,1,
1970329131942162,,Salins Pasteur,45.7716,3.08221,1,
1970329131942109,,La Sarre,45.7696,3.11491,1,
1970329131941978,,Sardou,45.8078,3.12243,1,
1970329131942334,,La Serve,45.7274,3.09173,1,
1970329131942382,,La Saunière,45.7173,3.18818,1,
1970329131941979,,Sauzettes,45.7509,3.12375,1,
1970329131942128,,Savarounes,45.7792,3.06238,1,
1970329131941984,,St Verny,45.7396,3.10633,1,
1970329131941982,,St Jacques Loucheur,45.7613,3.09462,1,
1970329131942443,,St Jacques Dolet,45.7651,3.08904,1,
1970329131942189,,Soulet,45.7763,3.1084,1,
1970329131942264,,Sounely Gravins,45.7396,3.14038,1,
1970329131941950,,Les Sports,45.7349,3.10277,1,
1970329131941981,,St Jacques,45.7572,3.09681,1,
1970329131942038,,Stade P. Marcombes,45.7613,3.08255,1,
1970329131941983,,St Martin,45.7502,3.12123,1,
1970329131942444,,Stade M. Michelin,45.7877,3.10627,1,
1970329131942163,,Theuriet,45.7663,3.07814,1,
1970329131942039,,Sully,45.7925,3.07411,1,
1970329131942148,,St Rames,45.7729,3.10236,1,
1970329131942040,,Tamaris,45.7884,3.0629,1,
1970329131942337,,Les Teytos,45.7249,3.08549,1,
1970329131942073,,Teilhard de Chardin,45.7758,3.06196,1,
1970329131942164,,Poncillon,45.762,3.08543,1,
1970329131942074,,Thermes,45.77,3.05812,1,
1970329131942149,,Tillon,45.7751,3.12748,1,
1970329131942041,,Thévenot Thibaud,45.7884,3.08996,1,
1970329131942349,,Tilleuls,45.7253,3.08817,1,
1970329131942237,,Tocqueville,45.7337,3.09832,1,
1970329131942130,,Traversin,45.7834,3.06319,1,
1970329131942131,,Troènes,45.7375,3.17556,1,
1970329131942293,,Trioux,45.8024,3.11717,1,
1970329131942042,,Trémonteix Charcot,45.7928,3.07045,1,
1970329131941985,,Universités,45.7712,3.08872,1,
1970329131942190,,Trois Résistants,45.7937,3.07738,1,
1970329131941951,,Les Vergnes,45.813,3.12839,1,
1970329131942165,,Vallières,45.7599,3.08536,1,
1970329131942388,,Verger du Caire,45.7182,3.18665,1,
1970329131942075,,Vergers,45.7563,3.06409,1,
1970329131942150,,Vernière,45.7963,3.08502,1,
1970329131942137,,Vertaizon,45.7747,3.10062,1,
1970329131942133,,"Vincent d'Indy",45.7711,3.10173,1,
1970329131941952,,Les Vignes,45.8027,3.10662,1,
1970329131941986,,Vigenaud,45.7638,3.09858,1,
1970329131942533,,Victor Hugo,45.7381,3.20842,1,
1970329131942043,,Wilson,45.73,3.06431,1,
1970329131942076,,Villars,45.7754,3.05946,1,
1970329131942324,,Vivarais,45.7352,3.19285,1,
1970329131942265,,Voltaire - INSPE,45.7684,3.07519,1,
1970329131942166,,Volney,45.7637,3.07996,1,
1970329131942077,,Voie Romaine,45.7754,3.05472,1,
1970329131942555,,La Baraque (Boulangerie),45.7813,3.02155,1,
1970329131942564,,Orcines Rte de Limoges,45.7857,3.01557,1,
1970329131942553,,"La Font de l'arbre",45.7692,3.00713,1,
1970329131942510,,Porte de Turin,45.8408,3.12517,1,
1970329131942080,,AUBIÈRE Z.I. Ribes,45.7549,3.14401,1,
1970329131942516,,Blaise Pascal,45.7948,3.16283,1,
1970329131942517,,Gare du Panoramique des Dômes,45.7717,2.98511,1,
1970329131942515,,"Mairie d'Aulnat",45.7951,3.16533,1,
1970329131942514,,Piscine,45.8172,3.12261,1,
1970329131942518,,Boisvallon,45.7475,3.06324,1,
1970329131942525,,Champflour,45.7896,3.09217,1,
1970329131942524,,Les Sureaux,45.773,3.11366,1,
1970329131942531,,Stade G. Montpied,45.813,3.12138,1,
1970329131942540,,Trois Fées,45.8372,3.10494,1,
1970329131942550,,Aristide Briand,45.774,3.06384,1,
1970329131942539,,Viviani,45.8071,3.11878,1,
1970329131942549,,Fourche Vieille,45.7918,3.26175,1,
1970329131942538,,Jules Guesde,45.7776,3.06409,1,
1970329131942551,,Solayer,45.8103,3.11107,1,
1970462275928190,,Sarre,45.8356,3.09614,1,
1970329131942542,,Biopole,45.8478,3.16692,1,
1970329131942547,,Malintrat,45.7952,3.12309,1,
1970329131942544,,Centre Bourg,45.8513,3.18019,1,
1970329131942543,,Clement Ader,45.8159,3.15186,1,
1970329131942545,,Fontchenille,45.8208,3.15524,1,
1970329131942548,,Stade des Gravanches,45.8019,3.13182,1,
1970329131942546,,S.Beauzire Lilas,45.8489,3.17458,1,
1970462275928065,,Québec,45.8039,3.13325,1,
1970329131942541,,Boussadet,45.8326,3.10529,1,
1970462275928066,,Zone des Gravanches,45.8054,3.13699,1,
1970462275928067,,Biopole 2,45.8501,3.17038,1,
1970462275928080,,"Les Allées d'Aussandra",45.7139,3.19396,1,
1970462275928078,,"L'enclos",45.7399,3.20226,1,
1970462275928075,,Gambetta,45.8152,3.14387,1,
1970462275928074,,Rhonez,45.8141,3.14051,1,
1970462275928076,,J. Ferry,45.8205,3.14442,1,
1970462275928079,,La Montorière,45.7119,3.19113,1,
1970462275928081,,LE CENDRE Rte des Martres,45.7173,3.19094,1,
1970462275928077,,Campus RDI,45.8441,3.12332,1,
1970462275928089,,"Av. de l'Allier",45.7396,3.20937,1,
1970462275928095,,"BLANZAT Puy de l'Orme",45.8272,3.06557,1,
1970462275928098,,Bois Joli,45.7495,3.15076,1,
1970462275928099,,COURNON Grande Halle,45.7392,3.15961,1,
1970462275928102,,Le Prat Bâtiment F,45.7457,3.11086,1,
1970462275928103,,Le Prat Bâtiment A,45.7461,3.11234,1,
1970462275928104,,Quartier Le Prat Bâtiment C,45.7447,3.11093,1,
1970462275928106,,Les Balladoux,45.8429,3.1192,1,
1970462275928108,,Claussat,45.7787,3.06316,1,
1970462275928110,,Anne-Marie Menut,45.7465,3.17347,1,
1970462275928111,,Les Tonnelles,45.7287,3.10095,1,
1970462275928109,,Richelieu,45.7792,3.06685,1,
1970462275928116,,Résidence Pasteur,45.7567,3.1097,1,
1970462275928114,,Jacqueline Auriol,45.7979,3.14187,1,
1970462275928117,,Cité 1,45.7621,3.11821,1,
1970462275928113,,Chartoire,45.7972,3.1365,1,
1970462275928118,,Fontmaure Europe,45.7751,3.06304,1,
1970462275928119,,Croix St Guillaume,45.7496,3.24068,1,
1970462275928120,,MUR S/ ALLIER Salle Polyvalente,45.7705,3.24082,1,
1970462275928121,,Edouard Herriot,45.749,3.1457,1,
1970462275928122,,Font Grande,45.7556,3.24549,1,
1970462275928124,,Rond-Point de St Bonnet,45.7282,3.23556,1,
1970462275928123,,La Gobe,45.7664,3.23897,1,
1970462275928125,,"L'Epouvantail",45.7293,3.23207,1,
1970462275928126,,Arsenal,45.7979,3.13085,1,
1970329131942387,,COURNON Toulaits,45.7439,3.21026,1,
1970462275928130,,Trémonteix Eychart,45.7931,3.06642,1,
1970462275928131,,René Laennec,45.7444,3.20583,1,
1970462275928133,,Rte des domes,45.7683,3.01348,1,
1970462275928134,,Champlong,45.7589,3.05743,1,
1970462275928135,,Parc de Montjuzet,45.7904,3.07075,1,
1970462275928195,,Chemin du Cheix,45.7597,3.23836,1,
1970462275928152,,La Boule,45.8096,3.24194,1,
1970462275928161,,Le Peyron,45.7896,3.23099,1,
1970462275928160,,Les Nigues,45.8063,3.23926,1,
1970462275928162,,Les Plantades,45.8046,3.23544,1,
1970462275928164,,La Quarte,45.8003,3.2434,1,
1970462275928136,,Clémentel,45.8114,3.1094,1,
1970462275928187,,Les Ardeliers,45.7907,3.23508,1,
1970462275928189,,Docteur Royet,45.8036,3.24429,1,
1970462275928191,,Gravouses,45.7847,3.07357,1,
1970462275928193,,Parking des Goules,45.8033,2.98765,1,
1970462275928194,,Vulcania,45.8129,2.95103,1,
1970462275928204,,"L'Herbelière",45.7928,3.23993,1,
1970462275928196,,Jean Fourcade,45.7529,3.24172,1,
1970462275928199,,"Musée d'Art Roger Quilliot",45.7939,3.11722,1,
1970462275928205,,Paulines,45.7752,3.09556,1,
1970475160829967,,La Beaumière,45.745,3.06991,1,
1970475160829968,,Plaine des Sports Arténium,45.7363,3.06554,1,
1970475160829969,,Place Royale,45.7775,3.08538,1,
1970475160829966,,Z.I. Est,45.7333,3.17822,1,
1970475160829972,,PERIGNAT Rte de COURNON,45.7338,3.14436,1,
1970475160829971,,Av. de la République,45.7344,3.142,1,
